[{"geocode": {"lng": -77.1211338, "lat": 38.8981779}, "notes": ["Accepts Deposits for Capital One Bank Accounts", "No Deposit Slips Needed", "No Envelopes Needed", "Deposit Multiple Checks All at Once", "Check Images Appear on the Receipt", "Adds Your Deposit Up for You", "Deposits Made Before 9pm Post the Same Business Day", "24 Hour Operations", "Walk Up ATM"], "hours": ["24 hours a day, 7 days a week"], "name": "Arlington 1", "address": {"state": "VA", "zip": "22207", "street_name": "Lee Highway", "street_number": "4700", "city": "Arlington"}}, {"geocode": {"lng": -77.1211338, "lat": 38.8981779}, "notes": ["Accepts Deposits for Capital One Bank Accounts", "No Deposit Slips Needed", "No Envelopes Needed", "Deposit Multiple Checks All at Once", "Check Images Appear on the Receipt", "Adds Your Deposit Up for You", "Deposits Made Before 9pm Post the Same Business Day", "24 Hour Operations", "Drive-Up ATM"], "hours": ["24 hours a day, 7 days a week"], "name": "Arlington 2", "address": {"state": "VA", "zip": "22207", "street_name": "Lee Highway", "street_number": "4700", "city": "Arlington"}}, {"geocode": {"lng": -77.1333157, "lat": 38.8960952}, "notes": ["Accepts Deposits for Capital One Bank Accounts", "No Deposit Slips Needed", "No Envelopes Needed", "Deposit Multiple Checks All at Once", "Check Images Appear on the Receipt", "Adds Your Deposit Up for You", "Deposits Made Before 9pm Post the Same Business Day", "24 Hour Operations", "Walk Up ATM"], "hours": ["24 hours a day, 7 days a week"], "name": "Lee Highway/North Arlington 2", "address": {"state": "VA", "zip": "22207", "street_name": "Lee Highway", "street_number": "5222", "city": "Arlington"}}, {"geocode": {"lng": -77.1333157, "lat": 38.8960952}, "notes": ["Accepts Deposits for Capital One Bank Accounts", "No Deposit Slips Needed", "No Envelopes Needed", "Deposit Multiple Checks All at Once", "Check Images Appear on the Receipt", "Adds Your Deposit Up for You", "Deposits Made Before 9pm Post the Same Business Day", "24 Hour Operations", "Drive-Up ATM"], "hours": ["24 hours a day, 7 days a week"], "name": "Lee Highway/North Arlington 3", "address": {"state": "VA", "zip": "22207", "street_name": "Lee Highway", "street_number": "5222", "city": "Arlington"}}, {"geocode": {"lng": -77.1333157, "lat": 38.8960952}, "notes": ["Accepts Deposits for Capital One Bank Accounts", "No Deposit Slips Needed", "No Envelopes Needed", "Deposit Multiple Checks All at Once", "Check Images Appear on the Receipt", "Adds Your Deposit Up for You", "Deposits Made Before 9pm Post the Same Business Day", "24 Hour Operations", "Drive-Up ATM"], "hours": ["24 hours a day, 7 days a week"], "name": "Lee Highway/North Arlington 4", "address": {"state": "VA", "zip": "22207", "street_name": "Lee Highway", "street_number": "5222", "city": "Arlington"}}, {"geocode": {"lng": -77.1113105, "lat": 38.882163}, "notes": ["Off Premise ATM", "24 Hour Operations", "Walk Up ATM", "Cash Withdrawals Only"], "hours": ["24 hours a day, 7 days a week"], "name": "WMATA - Ballston 1", "address": {"state": "VA", "zip": "22203", "street_name": "Fairfax Drive", "street_number": "4230", "city": "Arlington"}}, {"geocode": {"lng": -77.1102162, "lat": 38.8788951}, "notes": ["Off Premise ATM", "24 Hour Operations", "Walk Up ATM", "Cash Withdrawals Only"], "hours": ["24 hours a day, 7 days a week"], "name": "Ballston Commons Mall 1", "address": {"state": "VA", "zip": "22203", "street_name": "Wilson Boulevard", "street_number": "4238", "city": "Arlington"}}, {"geocode": {"lng": -77.1102162, "lat": 38.8788951}, "notes": ["Off Premise ATM", "24 Hour Operations", "Walk Up ATM", "Cash Withdrawals Only"], "hours": ["24 hours a day, 7 days a week"], "name": "Ballston Commons Mall 2", "address": {"state": "VA", "zip": "22203", "street_name": "Wilson Boulevard", "street_number": "4238", "city": "Arlington"}}, {"geocode": {"lng": -77.1102162, "lat": 38.8788951}, "notes": ["Off Premise ATM", "24 Hour Operations", "Walk Up ATM", "Cash Withdrawals Only"], "hours": ["24 hours a day, 7 days a week"], "name": "Ballston Commons Mall 4", "address": {"state": "VA", "zip": "22203", "street_name": "Wilson Boulevard", "street_number": "4238", "city": "Arlington"}}, {"geocode": {"lng": -77.109526, "lat": 38.879446}, "notes": ["Accepts Deposits for Capital One Bank Accounts", "No Deposit Slips Needed", "No Envelopes Needed", "Deposit Multiple Checks All at Once", "Check Images Appear on the Receipt", "Adds Your Deposit Up for You", "Deposits Made Before 9pm Post the Same Business Day", "24 Hour Operations", "Walk Up ATM"], "hours": ["24 hours a day, 7 days a week"], "name": "Ballston Common Mall 1", "address": {"state": "VA", "zip": "22203", "street_name": "Wilson Boulevard", "street_number": "4100", "city": "Arlington"}}, {"geocode": {"lng": -77.109526, "lat": 38.879446}, "notes": ["Accepts Deposits for Capital One Bank Accounts", "No Deposit Slips Needed", "No Envelopes Needed", "Deposit Multiple Checks All at Once", "Check Images Appear on the Receipt", "Adds Your Deposit Up for You", "Deposits Made Before 9pm Post the Same Business Day", "24 Hour Operations", "Walk Up ATM"], "hours": ["24 hours a day, 7 days a week"], "name": "Ballston Common Mall 2", "address": {"state": "VA", "zip": "22203", "street_name": "Wilson Boulevard", "street_number": "4100", "city": "Arlington"}}, {"geocode": {"lng": -77.10942059999999, "lat": 38.8786679}, "notes": ["Off Premise ATM", "24 Hour Operations", "Walk Up ATM", "Cash Withdrawals Only"], "hours": ["24 hours a day, 7 days a week"], "name": "Kettler Capitals Iceplex 1", "address": {"state": "VA", "zip": "22203", "street_name": "Glebe Road", "street_number": "627", "city": "Arlington"}}, {"geocode": {"lng": -77.1506881, "lat": 38.8689155}, "notes": ["Accepts Deposits for Capital One Bank Accounts", "No Deposit Slips Needed", "No Envelopes Needed", "Deposit Multiple Checks All at Once", "Check Images Appear on the Receipt", "Adds Your Deposit Up for You", "Deposits Made Before 9pm Post the Same Business Day", "24 Hour Operations", "Drive-Up ATM"], "hours": ["24 hours a day, 7 days a week"], "name": "Seven Corners 1", "address": {"state": "VA", "zip": "22044", "street_name": "Seven Corners Center", "street_number": "6367", "city": "Falls Church"}}, {"geocode": {"lng": -77.1506881, "lat": 38.8689155}, "notes": ["Accepts Deposits for Capital One Bank Accounts", "No Deposit Slips Needed", "No Envelopes Needed", "Deposit Multiple Checks All at Once", "Check Images Appear on the Receipt", "Adds Your Deposit Up for You", "Deposits Made Before 9pm Post the Same Business Day", "24 Hour Operations", "Drive-Up ATM"], "hours": ["24 hours a day, 7 days a week"], "name": "Seven Corners 2", "address": {"state": "VA", "zip": "22044", "street_name": "Seven Corners Center", "street_number": "6367", "city": "Falls Church"}}, {"geocode": {"lng": -77.071978, "lat": 38.896854}, "notes": ["Off Premise ATM", "24 Hour Operations", "Walk Up ATM", "Cash Withdrawals Only"], "hours": ["24 hours a day, 7 days a week"], "name": "WMATA - Rosslyn 1", "address": {"state": "VA", "zip": "22209", "street_name": "North Moore Street", "street_number": "1850", "city": "Arlington"}}, {"geocode": {"lng": -77.0702878, "lat": 38.8947171}, "notes": ["Accepts Deposits for Capital One Bank Accounts", "No Deposit Slips Needed", "No Envelopes Needed", "Deposit Multiple Checks All at Once", "Check Images Appear on the Receipt", "Adds Your Deposit Up for You", "Deposits Made Before 9pm Post the Same Business Day", "24 Hour Operations", "Walk Up ATM"], "hours": ["24 hours a day, 7 days a week"], "name": "Rosslyn 1", "address": {"state": "VA", "zip": "22209", "street_name": "Wilson Boulevard", "street_number": "1100", "city": "Arlington"}}, {"geocode": {"lng": -77.0702878, "lat": 38.8947171}, "notes": ["Accepts Deposits for Capital One Bank Accounts", "No Deposit Slips Needed", "No Envelopes Needed", "Deposit Multiple Checks All at Once", "Check Images Appear on the Receipt", "Adds Your Deposit Up for You", "Deposits Made Before 9pm Post the Same Business Day", "24 Hour Operations", "Walk Up ATM"], "hours": ["24 hours a day, 7 days a week"], "name": "Rosslyn 2", "address": {"state": "VA", "zip": "22209", "street_name": "Wilson Boulevard", "street_number": "1100", "city": "Arlington"}}, {"geocode": {"lng": -77.1192523, "lat": 38.9500943}, "notes": ["Accepts Deposits for Capital One Bank Accounts", "No Deposit Slips Needed", "No Envelopes Needed", "Deposit Multiple Checks All at Once", "Check Images Appear on the Receipt", "Adds Your Deposit Up for You", "Deposits Made Before 9pm Post the Same Business Day", "24 Hour Operations", "Walk Up ATM"], "hours": ["24 hours a day, 7 days a week"], "name": "Little Falls 1", "address": {"state": "MD", "zip": "20816", "street_name": "Sangamore Road", "street_number": "4701", "city": "Bethesda"}}, {"geocode": {"lng": -77.1192523, "lat": 38.9500943}, "notes": ["Accepts Deposits for Capital One Bank Accounts", "No Deposit Slips Needed", "No Envelopes Needed", "Deposit Multiple Checks All at Once", "Check Images Appear on the Receipt", "Adds Your Deposit Up for You", "Deposits Made Before 9pm Post the Same Business Day", "24 Hour Operations", "Walk Up ATM"], "hours": ["24 hours a day, 7 days a week"], "name": "Little Falls 2", "address": {"state": "MD", "zip": "20816", "street_name": "Sangamore Road", "street_number": "4701", "city": "Bethesda"}}, {"geocode": {"lng": -77.0871844, "lat": 38.9392871}, "notes": ["Accepts Deposits for Capital One Bank Accounts", "No Deposit Slips Needed", "No Envelopes Needed", "Deposit Multiple Checks All at Once", "Check Images Appear on the Receipt", "Adds Your Deposit Up for You", "Deposits Made Before 9pm Post the Same Business Day", "24 Hour Operations", "Walk Up ATM"], "hours": ["24 hours a day, 7 days a week"], "name": "American University 2", "address": {"state": "DC", "zip": "20016", "street_name": "Massachusetts Avenue, NW", "street_number": "4400", "city": "Washington"}}, {"geocode": {"lng": -77.0871844, "lat": 38.9392871}, "notes": ["Off Premise ATM", "24 Hour Operations", "Walk Up ATM", "Cash Withdrawals Only"], "hours": ["24 hours a day, 7 days a week"], "name": "American University Remote 1", "address": {"state": "DC", "zip": "20016", "street_name": "Massachusetts Avenue, NW", "street_number": "4400", "city": "Washington"}}, {"geocode": {"lng": -77.0871844, "lat": 38.9392871}, "notes": ["Off Premise ATM", "24 Hour Operations", "Walk Up ATM", "Cash Withdrawals Only"], "hours": ["24 hours a day, 7 days a week"], "name": "American University Remote 4", "address": {"state": "DC", "zip": "20016", "street_name": "Massachusetts Avenue, NW", "street_number": "4400", "city": "Washington"}}, {"geocode": {"lng": -77.0871844, "lat": 38.9392871}, "notes": ["Off Premise ATM", "24 Hour Operations", "Walk Up ATM", "Cash Withdrawals Only"], "hours": ["24 hours a day, 7 days a week"], "name": "American University Remote 5", "address": {"state": "DC", "zip": "20016", "street_name": "Massachusetts Avenue, NW", "street_number": "4400", "city": "Washington"}}, {"geocode": {"lng": -77.0871844, "lat": 38.9392871}, "notes": ["Off Premise ATM", "24 Hour Operations", "Walk Up ATM", "Cash Withdrawals Only"], "hours": ["24 hours a day, 7 days a week"], "name": "American University Remote 6", "address": {"state": "DC", "zip": "20016", "street_name": "Massachusetts Avenue, NW", "street_number": "4400", "city": "Washington"}}, {"geocode": {"lng": -77.0961428, "lat": 38.9449596}, "notes": ["Accepts Deposits for Capital One Bank Accounts", "No Deposit Slips Needed", "No Envelopes Needed", "Deposit Multiple Checks All at Once", "Check Images Appear on the Receipt", "Adds Your Deposit Up for You", "Deposits Made Before 9pm Post the Same Business Day", "24 Hour Operations", "Walk Up ATM"], "hours": ["24 hours a day, 7 days a week"], "name": "Spring Valley 1", "address": {"state": "DC", "zip": "20016", "street_name": "Massachusettes Avenue NW", "street_number": "4860", "city": "Washington"}}, {"geocode": {"lng": -77.0961428, "lat": 38.9449596}, "notes": ["Accepts Deposits for Capital One Bank Accounts", "No Deposit Slips Needed", "No Envelopes Needed", "Deposit Multiple Checks All at Once", "Check Images Appear on the Receipt", "Adds Your Deposit Up for You", "Deposits Made Before 9pm Post the Same Business Day", "24 Hour Operations", "Walk Up ATM"], "hours": ["24 hours a day, 7 days a week"], "name": "Spring Valley 2", "address": {"state": "DC", "zip": "20016", "street_name": "Massachusettes Avenue NW", "street_number": "4860", "city": "Washington"}}, {"geocode": {"lng": -77.0653548, "lat": 38.905297}, "notes": ["Off Premise ATM", "24 Hour Operations", "Walk Up ATM", "Cash Withdrawals Only"], "hours": ["24 hours a day, 7 days a week"], "name": "M Street 1", "address": {"state": "DC", "zip": "20007", "street_name": "M Street, NW", "street_number": "3279", "city": "Washington"}}, {"geocode": {"lng": -77.0646324, "lat": 38.9102227}, "notes": ["Accepts Deposits for Capital One Bank Accounts", "No Deposit Slips Needed", "No Envelopes Needed", "Deposit Multiple Checks All at Once", "Check Images Appear on the Receipt", "Adds Your Deposit Up for You", "Deposits Made Before 9pm Post the Same Business Day", "24 Hour Operations", "Walk Up ATM"], "hours": ["24 hours a day, 7 days a week"], "name": "Georgetown 1", "address": {"state": "DC", "zip": "20007", "street_name": "Wisconsin Avenue NW", "street_number": "1545", "city": "Washington"}}, {"geocode": {"lng": -77.0646324, "lat": 38.9102227}, "notes": ["Accepts Deposits for Capital One Bank Accounts", "No Deposit Slips Needed", "No Envelopes Needed", "Deposit Multiple Checks All at Once", "Check Images Appear on the Receipt", "Adds Your Deposit Up for You", "Deposits Made Before 9pm Post the Same Business Day", "24 Hour Operations", "Drive-Up ATM"], "hours": ["24 hours a day, 7 days a week"], "name": "Georgetown 2", "address": {"state": "DC", "zip": "20007", "street_name": "Wisconsin Avenue NW", "street_number": "1545", "city": "Washington"}}, {"geocode": {"lng": -77.18639209999999, "lat": 38.8923369}, "notes": ["Accepts Deposits for Capital One Bank Accounts", "No Deposit Slips Needed", "No Envelopes Needed", "Deposit Multiple Checks All at Once", "Check Images Appear on the Receipt", "Adds Your Deposit Up for You", "Deposits Made Before 9pm Post the Same Business Day", "24 Hour Operations", "Walk Up ATM"], "hours": ["24 hours a day, 7 days a week"], "name": "Falls Church 1", "address": {"state": "VA", "zip": "22046", "street_name": "W Broad Street", "street_number": "1100", "city": "Falls Church"}}, {"geocode": {"lng": -77.18639209999999, "lat": 38.8923369}, "notes": ["Accepts Deposits for Capital One Bank Accounts", "No Deposit Slips Needed", "No Envelopes Needed", "Deposit Multiple Checks All at Once", "Check Images Appear on the Receipt", "Adds Your Deposit Up for You", "Deposits Made Before 9pm Post the Same Business Day", "24 Hour Operations", "Drive-Up ATM"], "hours": ["24 hours a day, 7 days a week"], "name": "Falls Church 2", "address": {"state": "VA", "zip": "22046", "street_name": "W Broad Street", "street_number": "1100", "city": "Falls Church"}}, {"geocode": {"lng": -77.1878309, "lat": 38.8977328}, "notes": ["Off Premise ATM", "24 Hour Operations", "Walk Up ATM", "Cash Withdrawals Only"], "hours": ["24 hours a day, 7 days a week"], "name": "WMATA - West Falls Church 1", "address": {"state": "VA", "zip": "22043", "street_name": "Haycock Road", "street_number": "7040", "city": "Falls Church"}}, {"geocode": {"lng": -77.17829449999999, "lat": 38.932887}, "notes": ["Accepts Deposits for Capital One Bank Accounts", "No Deposit Slips Needed", "No Envelopes Needed", "Deposit Multiple Checks All at Once", "Check Images Appear on the Receipt", "Adds Your Deposit Up for You", "Deposits Made Before 9pm Post the Same Business Day", "24 Hour Operations", "Walk Up ATM"], "hours": ["24 hours a day, 7 days a week"], "name": "McLean 1", "address": {"state": "VA", "zip": "22101", "street_name": "Chain Bridge Road", "street_number": "1439", "city": "McLean"}}, {"geocode": {"lng": -77.17829449999999, "lat": 38.932887}, "notes": ["Accepts Deposits for Capital One Bank Accounts", "No Deposit Slips Needed", "No Envelopes Needed", "Deposit Multiple Checks All at Once", "Check Images Appear on the Receipt", "Adds Your Deposit Up for You", "Deposits Made Before 9pm Post the Same Business Day", "24 Hour Operations", "Drive-Up ATM"], "hours": ["24 hours a day, 7 days a week"], "name": "McLean 2", "address": {"state": "VA", "zip": "22101", "street_name": "Chain Bridge Road", "street_number": "1439", "city": "McLean"}}, {"geocode": {"lng": -77.17829449999999, "lat": 38.932887}, "notes": ["Accepts Deposits for Capital One Bank Accounts", "No Deposit Slips Needed", "No Envelopes Needed", "Deposit Multiple Checks All at Once", "Check Images Appear on the Receipt", "Adds Your Deposit Up for You", "Deposits Made Before 9pm Post the Same Business Day", "24 Hour Operations", "Drive-Up ATM"], "hours": ["24 hours a day, 7 days a week"], "name": "McLean 3", "address": {"state": "VA", "zip": "22101", "street_name": "Chain Bridge Road", "street_number": "1439", "city": "McLean"}}, {"geocode": {"lng": -77.09358499999999, "lat": 38.8605859}, "notes": ["Accepts Deposits for Capital One Bank Accounts", "No Deposit Slips Needed", "No Envelopes Needed", "Deposit Multiple Checks All at Once", "Check Images Appear on the Receipt", "Adds Your Deposit Up for You", "Deposits Made Before 9pm Post the Same Business Day", "24 Hour Operations", "Walk Up ATM"], "hours": ["24 hours a day, 7 days a week"], "name": "Columbia Pike 2", "address": {"state": "VA", "zip": "22204", "street_name": "Columbia Pike", "street_number": "3532", "city": "Arlington"}}, {"geocode": {"lng": -77.09358499999999, "lat": 38.8605859}, "notes": ["Accepts Deposits for Capital One Bank Accounts", "No Deposit Slips Needed", "No Envelopes Needed", "Deposit Multiple Checks All at Once", "Check Images Appear on the Receipt", "Adds Your Deposit Up for You", "Deposits Made Before 9pm Post the Same Business Day", "24 Hour Operations", "Drive-Up ATM"], "hours": ["24 hours a day, 7 days a week"], "name": "Columbia Pike 3", "address": {"state": "VA", "zip": "22204", "street_name": "Columbia Pike", "street_number": "3532", "city": "Arlington"}}, {"geocode": {"lng": -77.09358499999999, "lat": 38.8605859}, "notes": ["Accepts Deposits for Capital One Bank Accounts", "No Deposit Slips Needed", "No Envelopes Needed", "Deposit Multiple Checks All at Once", "Check Images Appear on the Receipt", "Adds Your Deposit Up for You", "Deposits Made Before 9pm Post the Same Business Day", "24 Hour Operations", "Drive-Up ATM"], "hours": ["24 hours a day, 7 days a week"], "name": "Columbia Pike 4", "address": {"state": "VA", "zip": "22204", "street_name": "Columbia Pike", "street_number": "3532", "city": "Arlington"}}, {"geocode": {"lng": -77.0596966, "lat": 38.90372}, "notes": ["Off Premise ATM", "24 Hour Operations", "Walk Up ATM", "Cash Withdrawals Only"], "hours": ["24 hours a day, 7 days a week"], "name": "The Foundry Building", "address": {"state": "DC", "zip": "20007", "street_name": "Thomas Jefferson Street NW", "street_number": "1055", "city": "Washington"}}, {"geocode": {"lng": -77.0848741, "lat": 38.9590565}, "notes": ["Accepts Deposits for Capital One Bank Accounts", "No Deposit Slips Needed", "No Envelopes Needed", "Deposit Multiple Checks All at Once", "Check Images Appear on the Receipt", "Adds Your Deposit Up for You", "Deposits Made Before 9pm Post the Same Business Day", "24 Hour Operations", "Walk Up ATM"], "hours": ["24 hours a day, 7 days a week"], "name": "Tenleytown 1", "address": {"state": "DC", "zip": "20016", "street_name": "Wisconsin Avenue", "street_number": "4000", "city": "Washington"}}, {"geocode": {"lng": -77.0848741, "lat": 38.9590565}, "notes": ["Accepts Deposits for Capital One Bank Accounts", "No Deposit Slips Needed", "No Envelopes Needed", "Deposit Multiple Checks All at Once", "Check Images Appear on the Receipt", "Adds Your Deposit Up for You", "Deposits Made Before 9pm Post the Same Business Day", "24 Hour Operations", "Walk Up ATM"], "hours": ["24 hours a day, 7 days a week"], "name": "Tenleytown 2", "address": {"state": "DC", "zip": "20016", "street_name": "Wisconsin Avenue", "street_number": "4000", "city": "Washington"}}, {"geocode": {"lng": -77.1823211, "lat": 38.9380881}, "notes": ["Accepts Deposits for Capital One Bank Accounts", "No Deposit Slips Needed", "No Envelopes Needed", "Deposit Multiple Checks All at Once", "Check Images Appear on the Receipt", "Adds Your Deposit Up for You", "Deposits Made Before 9pm Post the Same Business Day", "24 Hour Operations", "Walk Up ATM"], "hours": ["24 hours a day, 7 days a week"], "name": "Dolley Madison 1", "address": {"state": "VA", "zip": "22101", "street_name": "Elm Street", "street_number": "6890", "city": "McLean"}}, {"geocode": {"lng": -77.1823211, "lat": 38.9380881}, "notes": ["Accepts Deposits for Capital One Bank Accounts", "No Deposit Slips Needed", "No Envelopes Needed", "Deposit Multiple Checks All at Once", "Check Images Appear on the Receipt", "Adds Your Deposit Up for You", "Deposits Made Before 9pm Post the Same Business Day", "24 Hour Operations", "Drive-Up ATM"], "hours": ["24 hours a day, 7 days a week"], "name": "Dolley Madison 2", "address": {"state": "VA", "zip": "22101", "street_name": "Elm Street", "street_number": "6890", "city": "McLean"}}, {"geocode": {"lng": -77.1823211, "lat": 38.9380881}, "notes": ["Accepts Deposits for Capital One Bank Accounts", "No Deposit Slips Needed", "No Envelopes Needed", "Deposit Multiple Checks All at Once", "Check Images Appear on the Receipt", "Adds Your Deposit Up for You", "Deposits Made Before 9pm Post the Same Business Day", "24 Hour Operations", "Drive-Up ATM"], "hours": ["24 hours a day, 7 days a week"], "name": "Dolley Madison 3", "address": {"state": "VA", "zip": "22101", "street_name": "Elm Street", "street_number": "6890", "city": "McLean"}}, {"geocode": {"lng": -77.1172646, "lat": 38.8491288}, "notes": ["Accepts Deposits for Capital One Bank Accounts", "No Deposit Slips Needed", "No Envelopes Needed", "Deposit Multiple Checks All at Once", "Check Images Appear on the Receipt", "Adds Your Deposit Up for You", "Deposits Made Before 9pm Post the Same Business Day", "24 Hour Operations", "Walk Up ATM"], "hours": ["24 hours a day, 7 days a week"], "name": "Leesburg Pike Plaza 1", "address": {"state": "VA", "zip": "22041", "street_name": "S Jefferson Street", "street_number": "3499", "city": "Bailey's Crossroads"}}, {"geocode": {"lng": -77.1172646, "lat": 38.8491288}, "notes": ["Accepts Deposits for Capital One Bank Accounts", "No Deposit Slips Needed", "No Envelopes Needed", "Deposit Multiple Checks All at Once", "Check Images Appear on the Receipt", "Adds Your Deposit Up for You", "Deposits Made Before 9pm Post the Same Business Day", "24 Hour Operations", "Drive-Up ATM"], "hours": ["24 hours a day, 7 days a week"], "name": "Leesburg Pike Plaza 2", "address": {"state": "VA", "zip": "22041", "street_name": "S Jefferson Street", "street_number": "3499", "city": "Bailey's Crossroads"}}, {"geocode": {"lng": -77.1172646, "lat": 38.8491288}, "notes": ["Accepts Deposits for Capital One Bank Accounts", "No Deposit Slips Needed", "No Envelopes Needed", "Deposit Multiple Checks All at Once", "Check Images Appear on the Receipt", "Adds Your Deposit Up for You", "Deposits Made Before 9pm Post the Same Business Day", "24 Hour Operations", "Drive-Up ATM"], "hours": ["24 hours a day, 7 days a week"], "name": "Leesburg Pike Plaza 3", "address": {"state": "VA", "zip": "22041", "street_name": "S Jefferson Street", "street_number": "3499", "city": "Bailey's Crossroads"}}, {"geocode": {"lng": -77.0507354, "lat": 38.9070597}, "notes": ["Off Premise ATM", "24 Hour Operations", "Walk Up ATM", "Cash Withdrawals Only"], "hours": ["24 hours a day, 7 days a week"], "name": "Shaw Pittman Building 1", "address": {"state": "DC", "zip": "20037", "street_name": "N Street NW", "street_number": "2300", "city": "Washington"}}, {"geocode": {"lng": -77.04966999999999, "lat": 38.9005805}, "notes": ["Off Premise ATM", "24 Hour Operations", "Walk Up ATM", "Cash Withdrawals Only"], "hours": ["24 hours a day, 7 days a week"], "name": "WMATA - Foggy Bottom 1", "address": {"state": "DC", "zip": "20037", "street_name": "I Street, NW", "street_number": "2301", "city": "Washington"}}, {"geocode": {"lng": -77.1066261, "lat": 38.96369560000001}, "notes": ["Accepts Deposits for Capital One Bank Accounts", "No Deposit Slips Needed", "No Envelopes Needed", "Deposit Multiple Checks All at Once", "Check Images Appear on the Receipt", "Adds Your Deposit Up for You", "Deposits Made Before 9pm Post the Same Business Day", "24 Hour Operations", "Walk Up ATM"], "hours": ["24 hours a day, 7 days a week"], "name": "Westbard #1", "address": {"state": "MD", "zip": "20816", "street_name": "Westbard Avenue", "street_number": "5370", "city": "Bethesda"}}, {"geocode": {"lng": -77.1066261, "lat": 38.96369560000001}, "notes": ["Accepts Deposits for Capital One Bank Accounts", "No Deposit Slips Needed", "No Envelopes Needed", "Deposit Multiple Checks All at Once", "Check Images Appear on the Receipt", "Adds Your Deposit Up for You", "Deposits Made Before 9pm Post the Same Business Day", "24 Hour Operations", "Walk Up ATM"], "hours": ["24 hours a day, 7 days a week"], "name": "Westbard #2", "address": {"state": "MD", "zip": "20816", "street_name": "Westbard Avenue", "street_number": "5370", "city": "Bethesda"}}, {"geocode": {"lng": -77.0582046, "lat": 38.93625110000001}, "notes": ["Accepts Deposits for Capital One Bank Accounts", "No Deposit Slips Needed", "No Envelopes Needed", "Deposit Multiple Checks All at Once", "Check Images Appear on the Receipt", "Adds Your Deposit Up for You", "Deposits Made Before 9pm Post the Same Business Day", "24 Hour Operations", "Walk Up ATM"], "hours": ["24 hours a day, 7 days a week"], "name": "Cleveland Park 1", "address": {"state": "DC", "zip": "20008", "street_name": "Connecticut Avenue", "street_number": "3519", "city": "Washington"}}, {"geocode": {"lng": -77.106949, "lat": 38.9643486}, "notes": ["Accepts Deposits for Capital One Bank Accounts", "No Deposit Slips Needed", "No Envelopes Needed", "Deposit Multiple Checks All at Once", "Check Images Appear on the Receipt", "Adds Your Deposit Up for You", "Deposits Made Before 9pm Post the Same Business Day", "24 Hour Operations", "Walk Up ATM"], "hours": ["24 hours a day, 7 days a week"], "name": "Westbard Kiosk 1", "address": {"state": "MD", "zip": "20816", "street_name": "Westbard Avenue", "street_number": "5420", "city": "Bethesda"}}, {"geocode": {"lng": -77.20388249999999, "lat": 38.9024769}, "notes": ["Accepts Deposits for Capital One Bank Accounts", "No Deposit Slips Needed", "No Envelopes Needed", "Deposit Multiple Checks All at Once", "Check Images Appear on the Receipt", "Adds Your Deposit Up for You", "Deposits Made Before 9pm Post the Same Business Day", "24 Hour Operations", "Walk Up ATM"], "hours": ["24 hours a day, 7 days a week"], "name": "Idlywood Plaza 1", "address": {"state": "VA", "zip": "22043", "street_name": "Leesburg Pike", "street_number": "7501", "city": "Falls Church"}}, {"geocode": {"lng": -77.20388249999999, "lat": 38.9024769}, "notes": ["Accepts Deposits for Capital One Bank Accounts", "No Deposit Slips Needed", "No Envelopes Needed", "Deposit Multiple Checks All at Once", "Check Images Appear on the Receipt", "Adds Your Deposit Up for You", "Deposits Made Before 9pm Post the Same Business Day", "24 Hour Operations", "Walk Up ATM"], "hours": ["24 hours a day, 7 days a week"], "name": "Idlywood Plaza 2", "address": {"state": "VA", "zip": "22043", "street_name": "Leesburg Pike", "street_number": "7501", "city": "Falls Church"}}, {"geocode": {"lng": -77.0848741, "lat": 38.9590565}, "notes": ["Off Premise ATM", "24 Hour Operations", "Walk Up ATM", "Cash Withdrawals Only"], "hours": ["24 hours a day, 7 days a week"], "name": "Mazza Gallerie 1", "address": {"state": "DC", "zip": "20015", "street_name": "Wisconsin Avenue", "street_number": "5300", "city": "Washington"}}, {"geocode": {"lng": -77.0457103, "lat": 38.91374560000001}, "notes": ["Off Premise ATM", "24 Hour Operations", "Walk Up ATM", "Cash Withdrawals Only"], "hours": ["24 hours a day, 7 days a week"], "name": "Dupont 1", "address": {"state": "DC", "zip": "20009", "street_name": "- 1749 Connecticut Avenue NW", "street_number": "1743", "city": "Washington"}}, {"geocode": {"lng": -77.0459826, "lat": 38.90017479999999}, "notes": ["Off Premise ATM", "24 Hour Operations", "Walk Up ATM", "Cash Withdrawals Only"], "hours": ["24 hours a day, 7 days a week"], "name": "2000 Pennsylvania Avenue 1", "address": {"state": "DC", "zip": "20006", "street_name": "Pennsylvania Avenue NW", "street_number": "2000", "city": "Washington"}}, {"geocode": {"lng": -77.0459826, "lat": 38.90017479999999}, "notes": ["Off Premise ATM", "24 Hour Operations", "Walk Up ATM", "Cash Withdrawals Only"], "hours": ["24 hours a day, 7 days a week"], "name": "2000 Pennsylvania Avenue 2", "address": {"state": "DC", "zip": "20006", "street_name": "Pennsylvania Avenue NW", "street_number": "2000", "city": "Washington"}}, {"geocode": {"lng": -77.0448991, "lat": 38.9110364}, "notes": ["Off Premise ATM", "24 Hour Operations", "Walk Up ATM", "Cash Withdrawals Only"], "hours": ["24 hours a day, 7 days a week"], "name": "WMATA - Dupont Circle 1", "address": {"state": "DC", "zip": "20036", "street_name": "20th Street, NW", "street_number": "1525", "city": "Washington"}}, {"geocode": {"lng": -77.0857097, "lat": 38.96085850000001}, "notes": ["Off Premise ATM", "24 Hour Operations", "Walk Up ATM", "Cash Withdrawals Only"], "hours": ["24 hours a day, 7 days a week"], "name": "WMATA - Friendship Heights 1", "address": {"state": "DC", "zip": "20015", "street_name": "Wisconsin Avenue, NW", "street_number": "5337", "city": "Washington"}}, {"geocode": {"lng": -78.062917, "lat": 34.7162747}, "notes": ["Off Premise ATM", "Walk Up ATM", "Cash Withdrawals Only"], "hours": ["Sun 12 PM - 7 PM", "Mon 10 AM - 8 PM", "Tue 10 AM - 8 PM", "Wed 10 AM - 8 PM", "Thu 10 AM - 8 PM", "Fri 10 AM - 8 PM", "Sat 12 PM - 7 PM"], "name": "Wisconsin Place", "address": {"state": "MD", "zip": "20815", "street_name": "Willard Avenue, Suite # 1", "street_number": "4412", "city": "Chevy Chase"}}, {"geocode": {"lng": -77.0558384, "lat": 38.8708761}, "notes": ["Off Premise ATM", "24 Hour Operations", "Walk Up ATM", "Cash Withdrawals Only"], "hours": ["24 hours a day, 7 days a week"], "name": "WMATA - Pentagon 1", "address": {"state": "VA", "zip": "22202", "street_name": "South Rotary Road", "street_number": "2", "city": "Arlington"}}, {"geocode": {"lng": -77.0430097, "lat": 38.9019865}, "notes": ["Off Premise ATM", "24 Hour Operations", "Walk Up ATM", "Cash Withdrawals Only"], "hours": ["24 hours a day, 7 days a week"], "name": "International Square Remote 1", "address": {"state": "DC", "zip": "20006", "street_name": "K Street NW", "street_number": "1850", "city": "Washington"}}, {"geocode": {"lng": -77.04193819999999, "lat": 38.9053571}, "notes": ["Accepts Deposits for Capital One Bank Accounts", "No Deposit Slips Needed", "No Envelopes Needed", "Deposit Multiple Checks All at Once", "Check Images Appear on the Receipt", "Adds Your Deposit Up for You", "Deposits Made Before 9pm Post the Same Business Day", "24 Hour Operations", "Walk Up ATM"], "hours": ["24 hours a day, 7 days a week"], "name": "18th &amp; M 1", "address": {"state": "DC", "zip": "20036", "street_name": "M Street, NW", "street_number": "1800", "city": "Washington"}}, {"geocode": {"lng": -77.04193819999999, "lat": 38.9053571}, "notes": ["Accepts Deposits for Capital One Bank Accounts", "No Deposit Slips Needed", "No Envelopes Needed", "Deposit Multiple Checks All at Once", "Check Images Appear on the Receipt", "Adds Your Deposit Up for You", "Deposits Made Before 9pm Post the Same Business Day", "24 Hour Operations", "Walk Up ATM"], "hours": ["24 hours a day, 7 days a week"], "name": "18th &amp; M 2", "address": {"state": "DC", "zip": "20036", "street_name": "M Street, NW", "street_number": "1800", "city": "Washington"}}, {"geocode": {"lng": -77.04193819999999, "lat": 38.9053571}, "notes": ["Accepts Deposits for Capital One Bank Accounts", "No Deposit Slips Needed", "No Envelopes Needed", "Deposit Multiple Checks All at Once", "Check Images Appear on the Receipt", "Adds Your Deposit Up for You", "Deposits Made Before 9pm Post the Same Business Day", "24 Hour Operations", "Walk Up ATM"], "hours": ["24 hours a day, 7 days a week"], "name": "18th &amp; M 3", "address": {"state": "DC", "zip": "20036", "street_name": "M Street, NW", "street_number": "1800", "city": "Washington"}}, {"geocode": {"lng": -77.0849195, "lat": 38.9625208}, "notes": ["Accepts Deposits for Capital One Bank Accounts", "No Deposit Slips Needed", "No Envelopes Needed", "Deposit Multiple Checks All at Once", "Check Images Appear on the Receipt", "Adds Your Deposit Up for You", "Deposits Made Before 9pm Post the Same Business Day", "24 Hour Operations", "Walk Up ATM"], "hours": ["24 hours a day, 7 days a week"], "name": "Western Avenue 1", "address": {"state": "MD", "zip": "20815", "street_name": "Wisconsin Avenue", "street_number": "5459", "city": "Chevy Chase"}}, {"geocode": {"lng": -77.0419007, "lat": 38.901438}, "notes": ["Off Premise ATM", "24 Hour Operations", "Walk Up ATM", "Cash Withdrawals Only"], "hours": ["24 hours a day, 7 days a week"], "name": "WMATA - Farragut West 1", "address": {"state": "DC", "zip": "20006", "street_name": "18th Streeet, NW", "street_number": "900", "city": "Washington"}}, {"geocode": {"lng": -77.0601179, "lat": 38.8639404}, "notes": ["Accepts Deposits for Capital One Bank Accounts", "No Deposit Slips Needed", "No Envelopes Needed", "Deposit Multiple Checks All at Once", "Check Images Appear on the Receipt", "Adds Your Deposit Up for You", "Deposits Made Before 9pm Post the Same Business Day", "24 Hour Operations", "Walk Up ATM"], "hours": ["24 hours a day, 7 days a week"], "name": "Pentagon City Fashion Centre 1", "address": {"state": "VA", "zip": "22202", "street_name": "South Hayes Street", "street_number": "1100", "city": "Arlington"}}, {"geocode": {"lng": -77.0601179, "lat": 38.8639404}, "notes": ["Accepts Deposits for Capital One Bank Accounts", "No Deposit Slips Needed", "No Envelopes Needed", "Deposit Multiple Checks All at Once", "Check Images Appear on the Receipt", "Adds Your Deposit Up for You", "Deposits Made Before 9pm Post the Same Business Day", "24 Hour Operations", "Walk Up ATM"], "hours": ["24 hours a day, 7 days a week"], "name": "Pentagon City Fashion Centre 2", "address": {"state": "VA", "zip": "22202", "street_name": "South Hayes Street", "street_number": "1100", "city": "Arlington"}}, {"geocode": {"lng": -77.0601179, "lat": 38.8639404}, "notes": ["Accepts Deposits for Capital One Bank Accounts", "No Deposit Slips Needed", "No Envelopes Needed", "Deposit Multiple Checks All at Once", "Check Images Appear on the Receipt", "Adds Your Deposit Up for You", "Deposits Made Before 9pm Post the Same Business Day", "24 Hour Operations", "Walk Up ATM"], "hours": ["24 hours a day, 7 days a week"], "name": "Pentagon City Fashion Centre 3", "address": {"state": "VA", "zip": "22202", "street_name": "South Hayes Street", "street_number": "1100", "city": "Arlington"}}, {"geocode": {"lng": -77.0587467, "lat": 38.8614551}, "notes": ["Off Premise ATM", "24 Hour Operations", "Walk Up ATM", "Cash Withdrawals Only"], "hours": ["24 hours a day, 7 days a week"], "name": "Pentagon Centre Mall 1", "address": {"state": "VA", "zip": "22202", "street_name": "South Hayes Street", "street_number": "1201", "city": "Arlington"}}, {"geocode": {"lng": -77.0587467, "lat": 38.8614551}, "notes": ["Off Premise ATM", "24 Hour Operations", "Walk Up ATM", "Cash Withdrawals Only"], "hours": ["24 hours a day, 7 days a week"], "name": "Pentagon Centre Mall 2", "address": {"state": "VA", "zip": "22202", "street_name": "South Hayes Street", "street_number": "1201", "city": "Arlington"}}, {"geocode": {"lng": -77.0399522, "lat": 38.902173}, "notes": ["Accepts Deposits for Capital One Bank Accounts", "No Deposit Slips Needed", "No Envelopes Needed", "Deposit Multiple Checks All at Once", "Check Images Appear on the Receipt", "Adds Your Deposit Up for You", "Deposits Made Before 9pm Post the Same Business Day", "24 Hour Operations", "Walk Up ATM"], "hours": ["24 hours a day, 7 days a week"], "name": "17th and K Street 1", "address": {"state": "DC", "zip": "20006", "street_name": "K Street, NW", "street_number": "1700", "city": "Washington"}}, {"geocode": {"lng": -77.0399522, "lat": 38.902173}, "notes": ["Accepts Deposits for Capital One Bank Accounts", "No Deposit Slips Needed", "No Envelopes Needed", "Deposit Multiple Checks All at Once", "Check Images Appear on the Receipt", "Adds Your Deposit Up for You", "Deposits Made Before 9pm Post the Same Business Day", "24 Hour Operations", "Walk Up ATM"], "hours": ["24 hours a day, 7 days a week"], "name": "17th and K Street 2", "address": {"state": "DC", "zip": "20006", "street_name": "K Street, NW", "street_number": "1700", "city": "Washington"}}, {"geocode": {"lng": -77.0601093, "lat": 38.8630559}, "notes": ["Off Premise ATM", "24 Hour Operations", "Walk Up ATM", "Cash Withdrawals Only"], "hours": ["24 hours a day, 7 days a week"], "name": "WMATA - Pentagon City 1", "address": {"state": "VA", "zip": "22202", "street_name": "South Hayes Street", "street_number": "1250", "city": "Arlington"}}, {"geocode": {"lng": -77.040381, "lat": 38.89952}, "notes": ["Accepts Deposits for Capital One Bank Accounts", "No Deposit Slips Needed", "No Envelopes Needed", "Deposit Multiple Checks All at Once", "Check Images Appear on the Receipt", "Adds Your Deposit Up for You", "Deposits Made Before 9pm Post the Same Business Day", "24 Hour Operations", "Walk Up ATM"], "hours": ["24 hours a day, 7 days a week"], "name": "Pennsylvania Avenue 1", "address": {"state": "DC", "zip": "20006", "street_name": "Pennsylvania Avenue NW", "street_number": "1717", "city": "Washington"}}, {"geocode": {"lng": -77.040381, "lat": 38.89952}, "notes": ["Accepts Deposits for Capital One Bank Accounts", "No Deposit Slips Needed", "No Envelopes Needed", "Deposit Multiple Checks All at Once", "Check Images Appear on the Receipt", "Adds Your Deposit Up for You", "Deposits Made Before 9pm Post the Same Business Day", "24 Hour Operations", "Walk Up ATM"], "hours": ["24 hours a day, 7 days a week"], "name": "Pennsylvania Avenue 2", "address": {"state": "DC", "zip": "20006", "street_name": "Pennsylvania Avenue NW", "street_number": "1717", "city": "Washington"}}, {"geocode": {"lng": -77.04083159999999, "lat": 38.9033865}, "notes": ["Off Premise ATM", "24 Hour Operations", "Walk Up ATM", "Cash Withdrawals Only"], "hours": ["24 hours a day, 7 days a week"], "name": "Washington Square 1", "address": {"state": "DC", "zip": "20036", "street_name": "Connecticut Avenue NW", "street_number": "1050", "city": "Washington"}}, {"geocode": {"lng": -77.0390135, "lat": 38.9029004}, "notes": ["Off Premise ATM", "24 Hour Operations", "Walk Up ATM", "Cash Withdrawals Only"], "hours": ["24 hours a day, 7 days a week"], "name": "WMATA - Farragut North 1", "address": {"state": "DC", "zip": "20036", "street_name": "Connecticut Avenue, NW", "street_number": "1001", "city": "Washington"}}, {"geocode": {"lng": -77.03852479999999, "lat": 38.9037384}, "notes": ["Accepts Deposits for Capital One Bank Accounts", "No Deposit Slips Needed", "No Envelopes Needed", "Deposit Multiple Checks All at Once", "Check Images Appear on the Receipt", "Adds Your Deposit Up for You", "Deposits Made Before 9pm Post the Same Business Day", "24 Hour Operations", "Walk Up ATM"], "hours": ["24 hours a day, 7 days a week"], "name": "17th &amp; L 1", "address": {"state": "DC", "zip": "20036", "street_name": "17th Street NW", "street_number": "1100", "city": "Washington"}}, {"geocode": {"lng": -77.03852479999999, "lat": 38.9037384}, "notes": ["Accepts Deposits for Capital One Bank Accounts", "No Deposit Slips Needed", "No Envelopes Needed", "Deposit Multiple Checks All at Once", "Check Images Appear on the Receipt", "Adds Your Deposit Up for You", "Deposits Made Before 9pm Post the Same Business Day", "24 Hour Operations", "Walk Up ATM"], "hours": ["24 hours a day, 7 days a week"], "name": "17th &amp; L 2", "address": {"state": "DC", "zip": "20036", "street_name": "17th Street NW", "street_number": "1100", "city": "Washington"}}, {"geocode": {"lng": -77.04248179999999, "lat": 38.8523336}, "notes": ["Off Premise ATM", "Walk Up ATM", "Cash Withdrawals Only"], "hours": ["Mon 8 AM - 6 PM", "Tue 8 AM - 6 PM", "Wed 8 AM - 6 PM", "Thu 8 AM - 6 PM", "Fri 8 AM - 6 PM", "Sat 8 AM - 4 PM"], "name": "Reagan National Airport South Pier Connector", "address": {"state": "VA", "zip": "22202", "street_name": "Smith Boulevard", "street_number": "2401", "city": "Arlington"}}, {"geocode": {"lng": -77.04248179999999, "lat": 38.8523336}, "notes": ["Off Premise ATM", "Walk Up ATM", "Cash Withdrawals Only"], "hours": ["Mon 8 AM - 6 PM", "Tue 8 AM - 6 PM", "Wed 8 AM - 6 PM", "Thu 8 AM - 6 PM", "Fri 8 AM - 6 PM", "Sat 8 AM - 4 PM"], "name": "Reagan National Airport Center Pier Connector", "address": {"state": "VA", "zip": "22202", "street_name": "Smith Boulevard", "street_number": "2401", "city": "Arlington"}}, {"geocode": {"lng": -77.04248179999999, "lat": 38.8523336}, "notes": ["Off Premise ATM", "Walk Up ATM", "Cash Withdrawals Only"], "hours": ["Mon 8 AM - 6 PM", "Tue 8 AM - 6 PM", "Wed 8 AM - 6 PM", "Thu 8 AM - 6 PM", "Fri 8 AM - 6 PM", "Sat 8 AM - 4 PM"], "name": "Reagan National Airport North Pier Connector", "address": {"state": "VA", "zip": "22202", "street_name": "Smith Boulevard", "street_number": "2401", "city": "Arlington"}}, {"geocode": {"lng": -77.033287, "lat": 38.902006}, "notes": ["Accepts Deposits for Capital One Bank Accounts", "No Deposit Slips Needed", "No Envelopes Needed", "Deposit Multiple Checks All at Once", "Check Images Appear on the Receipt", "Adds Your Deposit Up for You", "Deposits Made Before 9pm Post the Same Business Day", "24 Hour Operations", "Walk Up ATM"], "hours": ["24 hours a day, 7 days a week"], "name": "McPherson Square 1", "address": {"state": "DC", "zip": "20005", "street_name": "15th Street", "street_number": "925", "city": "Washington"}}, {"geocode": {"lng": -77.0767568, "lat": 38.9663478}, "notes": ["Accepts Deposits for Capital One Bank Accounts", "No Deposit Slips Needed", "No Envelopes Needed", "Deposit Multiple Checks All at Once", "Check Images Appear on the Receipt", "Adds Your Deposit Up for You", "Deposits Made Before 9pm Post the Same Business Day", "24 Hour Operations", "Walk Up ATM"], "hours": ["24 hours a day, 7 days a week"], "name": "Chevy Chase Circle 1", "address": {"state": "DC", "zip": "20015", "street_name": "Connecticut Avenue NW", "street_number": "5714", "city": "Washington"}}, {"geocode": {"lng": -77.0767568, "lat": 38.9663478}, "notes": ["Accepts Deposits for Capital One Bank Accounts", "No Deposit Slips Needed", "No Envelopes Needed", "Deposit Multiple Checks All at Once", "Check Images Appear on the Receipt", "Adds Your Deposit Up for You", "Deposits Made Before 9pm Post the Same Business Day", "24 Hour Operations", "Walk Up ATM"], "hours": ["24 hours a day, 7 days a week"], "name": "Chevy Chase Circle 2", "address": {"state": "DC", "zip": "20015", "street_name": "Connecticut Avenue NW", "street_number": "5714", "city": "Washington"}}, {"geocode": {"lng": -77.05074499999999, "lat": 38.8615918}, "notes": ["Off Premise ATM", "24 Hour Operations", "Walk Up ATM", "Cash Withdrawals Only"], "hours": ["24 hours a day, 7 days a week"], "name": "Crystal Gateway 1", "address": {"state": "VA", "zip": "22202", "street_name": "South Clark Street", "street_number": "1235", "city": "Arlington"}}, {"geocode": {"lng": -77.0322568, "lat": 38.9010349}, "notes": ["Off Premise ATM", "24 Hour Operations", "Walk Up ATM", "Cash Withdrawals Only"], "hours": ["24 hours a day, 7 days a week"], "name": "WMATA - McPherson Square 1", "address": {"state": "DC", "zip": "20005", "street_name": "Eye Street, NW", "street_number": "1400", "city": "Washington"}}, {"geocode": {"lng": -77.05180760000002, "lat": 38.8596001}, "notes": ["Off Premise ATM", "24 Hour Operations", "Walk Up ATM", "Cash Withdrawals Only"], "hours": ["24 hours a day, 7 days a week"], "name": "Crowne Plaza @ Natl Airport 1", "address": {"state": "VA", "zip": "22202", "street_name": "Jefferson Davis Highway", "street_number": "1489", "city": "Arlington"}}, {"geocode": {"lng": -77.05187459999999, "lat": 38.8572168}, "notes": ["Off Premise ATM", "24 Hour Operations", "Walk Up ATM", "Cash Withdrawals Only"], "hours": ["24 hours a day, 7 days a week"], "name": "WMATA - Crystal City 1", "address": {"state": "VA", "zip": "22202", "street_name": "South Clark Street", "street_number": "1750", "city": "Arlington"}}, {"geocode": {"lng": -77.0302118, "lat": 38.8949053}, "notes": ["Off Premise ATM", "24 Hour Operations", "Walk Up ATM", "Cash Withdrawals Only"], "hours": ["24 hours a day, 7 days a week"], "name": "International Trade Center 1", "address": {"state": "DC", "zip": "20004", "street_name": "Pennsylvania Avenue NW", "street_number": "1300", "city": "Washington"}}, {"geocode": {"lng": -77.0302118, "lat": 38.8949053}, "notes": ["Off Premise ATM", "24 Hour Operations", "Walk Up ATM", "Cash Withdrawals Only"], "hours": ["24 hours a day, 7 days a week"], "name": "International Trade Center 2", "address": {"state": "DC", "zip": "20004", "street_name": "Pennsylvania Avenue NW", "street_number": "1300", "city": "Washington"}}, {"geocode": {"lng": -77.0302118, "lat": 38.8949053}, "notes": ["Off Premise ATM", "24 Hour Operations", "Walk Up ATM", "Cash Withdrawals Only"], "hours": ["24 hours a day, 7 days a week"], "name": "International Trade Center 3", "address": {"state": "DC", "zip": "20004", "street_name": "Pennsylvania Avenue NW", "street_number": "1300", "city": "Washington"}}, {"geocode": {"lng": -77.0302118, "lat": 38.8949053}, "notes": ["Off Premise ATM", "24 Hour Operations", "Walk Up ATM", "Cash Withdrawals Only"], "hours": ["24 hours a day, 7 days a week"], "name": "International Trade Center 4", "address": {"state": "DC", "zip": "20004", "street_name": "Pennsylvania Avenue NW", "street_number": "1300", "city": "Washington"}}, {"geocode": {"lng": -77.0296178, "lat": 38.8974207}, "notes": ["Off Premise ATM", "24 Hour Operations", "Walk Up ATM", "Cash Withdrawals Only"], "hours": ["24 hours a day, 7 days a week"], "name": "WMATA - Metro Center 1", "address": {"state": "DC", "zip": "20005", "street_name": "13th Street, NW", "street_number": "607", "city": "Washington"}}, {"geocode": {"lng": -77.0296178, "lat": 38.8974207}, "notes": ["Off Premise ATM", "24 Hour Operations", "Walk Up ATM", "Cash Withdrawals Only"], "hours": ["24 hours a day, 7 days a week"], "name": "WMATA - Metro Center 2", "address": {"state": "DC", "zip": "20005", "street_name": "13th Street, NW", "street_number": "607", "city": "Washington"}}, {"geocode": {"lng": -77.0296178, "lat": 38.8974207}, "notes": ["Off Premise ATM", "24 Hour Operations", "Walk Up ATM", "Cash Withdrawals Only"], "hours": ["24 hours a day, 7 days a week"], "name": "WMATA - Metro Center 3", "address": {"state": "DC", "zip": "20005", "street_name": "13th Street, NW", "street_number": "607", "city": "Washington"}}, {"geocode": {"lng": -77.0329064, "lat": 38.9284645}, "notes": ["Off Premise ATM", "24 Hour Operations", "Walk Up ATM", "Cash Withdrawals Only"], "hours": ["24 hours a day, 7 days a week"], "name": "WMATA - Columbia Heights 1", "address": {"state": "DC", "zip": "20009", "street_name": "14th Street, NW", "street_number": "3030", "city": "Washington"}}, {"geocode": {"lng": -77.0282675, "lat": 38.897154}, "notes": ["Accepts Deposits for Capital One Bank Accounts", "No Deposit Slips Needed", "No Envelopes Needed", "Deposit Multiple Checks All at Once", "Check Images Appear on the Receipt", "Adds Your Deposit Up for You", "Deposits Made Before 9pm Post the Same Business Day", "24 Hour Operations", "Walk Up ATM"], "hours": ["24 hours a day, 7 days a week"], "name": "Columbia Square 1", "address": {"state": "DC", "zip": "20004", "street_name": "F Street, NW", "street_number": "1200", "city": "Washington"}}, {"geocode": {"lng": -77.0282675, "lat": 38.897154}, "notes": ["Accepts Deposits for Capital One Bank Accounts", "No Deposit Slips Needed", "No Envelopes Needed", "Deposit Multiple Checks All at Once", "Check Images Appear on the Receipt", "Adds Your Deposit Up for You", "Deposits Made Before 9pm Post the Same Business Day", "24 Hour Operations", "Walk Up ATM"], "hours": ["24 hours a day, 7 days a week"], "name": "Columbia Square 2", "address": {"state": "DC", "zip": "20004", "street_name": "F Street, NW", "street_number": "1200", "city": "Washington"}}, {"geocode": {"lng": -77.0279673, "lat": 38.8936604}, "notes": ["Off Premise ATM", "24 Hour Operations", "Walk Up ATM", "Cash Withdrawals Only"], "hours": ["24 hours a day, 7 days a week"], "name": "WMATA - Federal Triangle 1", "address": {"state": "DC", "zip": "20004", "street_name": "12th Street, NW", "street_number": "302", "city": "Washington"}}, {"geocode": {"lng": -77.0497192, "lat": 38.8550463}, "notes": ["Accepts Deposits for Capital One Bank Accounts", "No Deposit Slips Needed", "No Envelopes Needed", "Deposit Multiple Checks All at Once", "Check Images Appear on the Receipt", "Adds Your Deposit Up for You", "Deposits Made Before 9pm Post the Same Business Day", "24 Hour Operations", "Walk Up ATM"], "hours": ["24 hours a day, 7 days a week"], "name": "Crystal City II 1", "address": {"state": "VA", "zip": "22202", "street_name": "F Crystal Drive", "street_number": "2100", "city": "Arlington"}}, {"geocode": {"lng": -77.0497192, "lat": 38.8550463}, "notes": ["Accepts Deposits for Capital One Bank Accounts", "No Deposit Slips Needed", "No Envelopes Needed", "Deposit Multiple Checks All at Once", "Check Images Appear on the Receipt", "Adds Your Deposit Up for You", "Deposits Made Before 9pm Post the Same Business Day", "24 Hour Operations", "Walk Up ATM"], "hours": ["24 hours a day, 7 days a week"], "name": "Crystal City II 2", "address": {"state": "VA", "zip": "22202", "street_name": "F Crystal Drive", "street_number": "2100", "city": "Arlington"}}, {"geocode": {"lng": -77.0287341, "lat": 38.8875558}, "notes": ["Off Premise ATM", "24 Hour Operations", "Walk Up ATM", "Cash Withdrawals Only"], "hours": ["24 hours a day, 7 days a week"], "name": "WMATA - Smithsonian 1", "address": {"state": "DC", "zip": "20004", "street_name": "Independence Avenue, SW", "street_number": "1200", "city": "Washington"}}, {"geocode": {"lng": -77.05329499999999, "lat": 38.849464}, "notes": ["Off Premise ATM", "24 Hour Operations", "Walk Up ATM", "Cash Withdrawals Only"], "hours": ["24 hours a day, 7 days a week"], "name": "Holiday Inn - National Airport 1", "address": {"state": "VA", "zip": "22202", "street_name": "Jefferson Davis Highway", "street_number": "2650", "city": "Arlington"}}, {"geocode": {"lng": -77.2258877, "lat": 38.9175184}, "notes": ["Accepts Deposits for Capital One Bank Accounts", "No Deposit Slips Needed", "No Envelopes Needed", "Deposit Multiple Checks All at Once", "Check Images Appear on the Receipt", "Adds Your Deposit Up for You", "Deposits Made Before 9pm Post the Same Business Day", "24 Hour Operations", "Walk Up ATM"], "hours": ["24 hours a day, 7 days a week"], "name": "Tyson's International Drive 1", "address": {"state": "VA", "zip": "22102", "street_name": "Fletcher Street", "street_number": "8110", "city": "McLean"}}, {"geocode": {"lng": -77.2258877, "lat": 38.9175184}, "notes": ["Accepts Deposits for Capital One Bank Accounts", "No Deposit Slips Needed", "No Envelopes Needed", "Deposit Multiple Checks All at Once", "Check Images Appear on the Receipt", "Adds Your Deposit Up for You", "Deposits Made Before 9pm Post the Same Business Day", "24 Hour Operations", "Drive-Up ATM"], "hours": ["24 hours a day, 7 days a week"], "name": "Tyson's International Drive 2", "address": {"state": "VA", "zip": "22102", "street_name": "Fletcher Street", "street_number": "8110", "city": "McLean"}}, {"geocode": {"lng": -76.99549979999999, "lat": 38.912025}, "notes": ["Accepts Deposits for Capital One Bank Accounts", "No Deposit Slips Needed", "No Envelopes Needed", "Deposit Multiple Checks All at Once", "Check Images Appear on the Receipt", "Adds Your Deposit Up for You", "Deposits Made Before 9pm Post the Same Business Day", "24 Hour Operations", "Walk Up ATM"], "hours": ["24 hours a day, 7 days a week"], "name": "New York Avenue 1", "address": {"state": "DC", "zip": "20001", "street_name": "New York Avenue", "street_number": "901", "city": "Washington"}}, {"geocode": {"lng": -77.0920119, "lat": 38.8298056}, "notes": ["Accepts Deposits for Capital One Bank Accounts", "No Deposit Slips Needed", "No Envelopes Needed", "Deposit Multiple Checks All at Once", "Check Images Appear on the Receipt", "Adds Your Deposit Up for You", "Deposits Made Before 9pm Post the Same Business Day", "24 Hour Operations", "Walk Up ATM"], "hours": ["24 hours a day, 7 days a week"], "name": "Bradlee Center 1", "address": {"state": "VA", "zip": "22302", "street_name": "King Street", "street_number": "3690-A", "city": "Alexandria"}}, {"geocode": {"lng": -77.0920119, "lat": 38.8298056}, "notes": ["Accepts Deposits for Capital One Bank Accounts", "No Deposit Slips Needed", "No Envelopes Needed", "Deposit Multiple Checks All at Once", "Check Images Appear on the Receipt", "Adds Your Deposit Up for You", "Deposits Made Before 9pm Post the Same Business Day", "24 Hour Operations", "Walk Up ATM"], "hours": ["24 hours a day, 7 days a week"], "name": "Bradlee Center 2", "address": {"state": "VA", "zip": "22302", "street_name": "King Street", "street_number": "3690-A", "city": "Alexandria"}}, {"geocode": {"lng": -77.0935135, "lat": 38.9808356}, "notes": ["Accepts Deposits for Capital One Bank Accounts", "No Deposit Slips Needed", "No Envelopes Needed", "Deposit Multiple Checks All at Once", "Check Images Appear on the Receipt", "Adds Your Deposit Up for You", "Deposits Made Before 9pm Post the Same Business Day", "24 Hour Operations", "Walk Up ATM"], "hours": ["24 hours a day, 7 days a week"], "name": "Bethesda Avenue 1", "address": {"state": "MD", "zip": "20814", "street_name": "Bethesda Avenue", "street_number": "4708", "city": "Bethesda"}}, {"geocode": {"lng": -77.0935135, "lat": 38.9808356}, "notes": ["Accepts Deposits for Capital One Bank Accounts", "No Deposit Slips Needed", "No Envelopes Needed", "Deposit Multiple Checks All at Once", "Check Images Appear on the Receipt", "Adds Your Deposit Up for You", "Deposits Made Before 9pm Post the Same Business Day", "24 Hour Operations", "Drive-Up ATM"], "hours": ["24 hours a day, 7 days a week"], "name": "Bethesda Avenue 2", "address": {"state": "MD", "zip": "20814", "street_name": "Bethesda Avenue", "street_number": "4708", "city": "Bethesda"}}, {"geocode": {"lng": -77.0935135, "lat": 38.9808356}, "notes": ["Accepts Deposits for Capital One Bank Accounts", "No Deposit Slips Needed", "No Envelopes Needed", "Deposit Multiple Checks All at Once", "Check Images Appear on the Receipt", "Adds Your Deposit Up for You", "Deposits Made Before 9pm Post the Same Business Day", "24 Hour Operations", "Drive-Up ATM"], "hours": ["24 hours a day, 7 days a week"], "name": "Bethesda Avenue 3", "address": {"state": "MD", "zip": "20814", "street_name": "Bethesda Avenue", "street_number": "4708", "city": "Bethesda"}}, {"geocode": {"lng": -77.0223723, "lat": 38.8944693}, "notes": ["Accepts Deposits for Capital One Bank Accounts", "No Deposit Slips Needed", "No Envelopes Needed", "Deposit Multiple Checks All at Once", "Check Images Appear on the Receipt", "Adds Your Deposit Up for You", "Deposits Made Before 9pm Post the Same Business Day", "24 Hour Operations", "Walk Up ATM"], "hours": ["24 hours a day, 7 days a week"], "name": "Market Square 1", "address": {"state": "DC", "zip": "20004", "street_name": "Pennsylvania Avenue, NW", "street_number": "701", "city": "Washington"}}, {"geocode": {"lng": -77.0223723, "lat": 38.8944693}, "notes": ["Accepts Deposits for Capital One Bank Accounts", "No Deposit Slips Needed", "No Envelopes Needed", "Deposit Multiple Checks All at Once", "Check Images Appear on the Receipt", "Adds Your Deposit Up for You", "Deposits Made Before 9pm Post the Same Business Day", "24 Hour Operations", "Walk Up ATM"], "hours": ["24 hours a day, 7 days a week"], "name": "Market Square 2", "address": {"state": "DC", "zip": "20004", "street_name": "Pennsylvania Avenue, NW", "street_number": "701", "city": "Washington"}}, {"geocode": {"lng": -77.0223723, "lat": 38.8944693}, "notes": ["Off Premise ATM", "24 Hour Operations", "Walk Up ATM", "Cash Withdrawals Only"], "hours": ["24 hours a day, 7 days a week"], "name": "WMATA - Archives 1", "address": {"state": "DC", "zip": "20004", "street_name": "Pennsylvania Avenue, NW", "street_number": "701", "city": "Washington"}}, {"geocode": {"lng": -77.0207781, "lat": 38.89981590000001}, "notes": ["Off Premise ATM", "24 Hour Operations", "Walk Up ATM", "Cash Withdrawals Only"], "hours": ["24 hours a day, 7 days a week"], "name": "WMATA - Gallery Place 1", "address": {"state": "DC", "zip": "20001", "street_name": "H Street, NW", "street_number": "630", "city": "Washington"}}, {"geocode": {"lng": -77.2273577, "lat": 38.9205947}, "notes": ["Off Premise ATM", "24 Hour Operations", "Walk Up ATM", "Cash Withdrawals Only"], "hours": ["24 hours a day, 7 days a week"], "name": "Holiday Inn - Crowne Plaza 1", "address": {"state": "VA", "zip": "22102", "street_name": "Chain Bridge Road", "street_number": "1960", "city": "McLean"}}, {"geocode": {"lng": -77.0216171, "lat": 38.8983998}, "notes": ["<span style=\"background-color: #FFFF66\">Available During Events Only</span>", "Off Premise ATM", "24 Hour Operations", "Walk Up ATM", "Cash Withdrawals Only"], "hours": ["24 hours a day, 7 days a week"], "name": "MCI Center 1", "address": {"state": "DC", "zip": "20004", "street_name": "F Street NW", "street_number": "601", "city": "Washington"}}, {"geocode": {"lng": -77.0216171, "lat": 38.8983998}, "notes": ["<span style=\"background-color: #FFFF66\">Available During Events Only</span>", "Off Premise ATM", "24 Hour Operations", "Walk Up ATM", "Cash Withdrawals Only"], "hours": ["24 hours a day, 7 days a week"], "name": "MCI Center 2", "address": {"state": "DC", "zip": "20004", "street_name": "F Street NW", "street_number": "601", "city": "Washington"}}, {"geocode": {"lng": -77.0216171, "lat": 38.8983998}, "notes": ["<span style=\"background-color: #FFFF66\">Available During Events Only</span>", "Off Premise ATM", "24 Hour Operations", "Walk Up ATM", "Cash Withdrawals Only"], "hours": ["24 hours a day, 7 days a week"], "name": "MCI Center 3", "address": {"state": "DC", "zip": "20004", "street_name": "F Street NW", "street_number": "601", "city": "Washington"}}, {"geocode": {"lng": -77.0216171, "lat": 38.8983998}, "notes": ["<span style=\"background-color: #FFFF66\">Available During Events Only</span>", "Off Premise ATM", "Walk Up ATM", "Cash Withdrawals Only"], "hours": [""], "name": "MCI Center 4", "address": {"state": "DC", "zip": "20004", "street_name": "F Street NW", "street_number": "601", "city": "Washington"}}, {"geocode": {"lng": -77.0216171, "lat": 38.8983998}, "notes": ["Off Premise ATM", "24 Hour Operations", "Walk Up ATM", "Cash Withdrawals Only"], "hours": ["24 hours a day, 7 days a week"], "name": "MCI Center 5", "address": {"state": "DC", "zip": "20004", "street_name": "F Street NW", "street_number": "601", "city": "Washington"}}, {"geocode": {"lng": -77.2272485, "lat": 38.92231049999999}, "notes": ["Accepts Deposits for Capital One Bank Accounts", "No Deposit Slips Needed", "No Envelopes Needed", "Deposit Multiple Checks All at Once", "Check Images Appear on the Receipt", "Adds Your Deposit Up for You", "Deposits Made Before 9pm Post the Same Business Day", "24 Hour Operations", "Walk Up ATM"], "hours": ["24 hours a day, 7 days a week"], "name": "Tysons Corner 1", "address": {"state": "VA", "zip": "22102", "street_name": "Greensboro Drive", "street_number": "8201", "city": "McLean"}}, {"geocode": {"lng": -77.09512099999999, "lat": 38.984367}, "notes": ["Off Premise ATM", "24 Hour Operations", "Walk Up ATM", "Cash Withdrawals Only"], "hours": ["24 hours a day, 7 days a week"], "name": "WMATA - Bethesda 1", "address": {"state": "MD", "zip": "20814", "street_name": "Wisconsin Avenue", "street_number": "7450", "city": "Bethesda"}}, {"geocode": {"lng": -77.0187698, "lat": 38.9034306}, "notes": ["Accepts Deposits for Capital One Bank Accounts", "No Deposit Slips Needed", "No Envelopes Needed", "Deposit Multiple Checks All at Once", "Check Images Appear on the Receipt", "Adds Your Deposit Up for You", "Deposits Made Before 9pm Post the Same Business Day", "24 Hour Operations", "Walk Up ATM"], "hours": ["24 hours a day, 7 days a week"], "name": "Mount Vernon Triangle/City Vista 1", "address": {"state": "DC", "zip": "20001", "street_name": "5th Street, NW", "street_number": "1075", "city": "Washington"}}, {"geocode": {"lng": -77.0208743, "lat": 38.8920618}, "notes": ["Off Premise ATM", "24 Hour Operations", "Walk Up ATM", "Cash Withdrawals Only"], "hours": ["24 hours a day, 7 days a week"], "name": "National Gallery of Art 1", "address": {"state": "DC", "zip": "20004", "street_name": "Constitution Avenue, NW", "street_number": "600", "city": "Washington"}}, {"geocode": {"lng": -77.01942, "lat": 38.897842}, "notes": ["Off Premise ATM", "24 Hour Operations", "Walk Up ATM", "Cash Withdrawals Only"], "hours": ["24 hours a day, 7 days a week"], "name": "WMATA Headquarters 1", "address": {"state": "DC", "zip": "20001", "street_name": "5th Street, NW", "street_number": "600", "city": "Washington"}}, {"geocode": {"lng": -77.093595, "lat": 38.9854212}, "notes": ["Accepts Deposits for Capital One Bank Accounts", "No Deposit Slips Needed", "No Envelopes Needed", "Deposit Multiple Checks All at Once", "Check Images Appear on the Receipt", "Adds Your Deposit Up for You", "Deposits Made Before 9pm Post the Same Business Day", "24 Hour Operations", "Walk Up ATM"], "hours": ["24 hours a day, 7 days a week"], "name": "Wisconsin Avenue 1", "address": {"state": "MD", "zip": "20814", "street_name": "Wisconsin Avenue", "street_number": "7501", "city": "Bethesda"}}, {"geocode": {"lng": -77.093595, "lat": 38.9854212}, "notes": ["Accepts Deposits for Capital One Bank Accounts", "No Deposit Slips Needed", "No Envelopes Needed", "Deposit Multiple Checks All at Once", "Check Images Appear on the Receipt", "Adds Your Deposit Up for You", "Deposits Made Before 9pm Post the Same Business Day", "24 Hour Operations", "Walk Up ATM"], "hours": ["24 hours a day, 7 days a week"], "name": "Wisconsin Avenue Headquarters 3", "address": {"state": "MD", "zip": "20814", "street_name": "Wisconsin Avenue", "street_number": "7501", "city": "Bethesda"}}, {"geocode": {"lng": -77.02090199999999, "lat": 38.885987}, "notes": ["Off Premise ATM", "24 Hour Operations", "Walk Up ATM", "Cash Withdrawals Only"], "hours": ["24 hours a day, 7 days a week"], "name": "WMATA - L'Enfant Plaza 1", "address": {"state": "DC", "zip": "20024", "street_name": "Maryland Avenue, SW", "street_number": "600", "city": "Washington"}}, {"geocode": {"lng": -77.01759469999999, "lat": 38.8969442}, "notes": ["Off Premise ATM", "24 Hour Operations", "Walk Up ATM", "Cash Withdrawals Only"], "hours": ["24 hours a day, 7 days a week"], "name": "WMATA - Judiciary Square 1", "address": {"state": "DC", "zip": "20001", "street_name": "F Street, NW", "street_number": "450", "city": "Washington"}}, {"geocode": {"lng": -77.04248179999999, "lat": 38.8523336}, "notes": ["Off Premise ATM", "24 Hour Operations", "Walk Up ATM", "Cash Withdrawals Only"], "hours": ["24 hours a day, 7 days a week"], "name": "National Airport 10", "address": {"state": "VA", "zip": "22202", "street_name": "Smith Boulevard", "street_number": "2401", "city": "Arlington"}}, {"geocode": {"lng": -77.04248179999999, "lat": 38.8523336}, "notes": ["Off Premise ATM", "24 Hour Operations", "Walk Up ATM", "Cash Withdrawals Only"], "hours": ["24 hours a day, 7 days a week"], "name": "National Airport 11", "address": {"state": "VA", "zip": "22202", "street_name": "Smith Boulevard", "street_number": "2401", "city": "Arlington"}}, {"geocode": {"lng": -77.04248179999999, "lat": 38.8523336}, "notes": ["Off Premise ATM", "24 Hour Operations", "Walk Up ATM", "Cash Withdrawals Only"], "hours": ["24 hours a day, 7 days a week"], "name": "National Airport 12", "address": {"state": "VA", "zip": "22202", "street_name": "Smith Boulevard", "street_number": "2401", "city": "Arlington"}}, {"geocode": {"lng": -77.04248179999999, "lat": 38.8523336}, "notes": ["Off Premise ATM", "24 Hour Operations", "Walk Up ATM", "Cash Withdrawals Only"], "hours": ["24 hours a day, 7 days a week"], "name": "National Airport 13", "address": {"state": "VA", "zip": "22202", "street_name": "Smith Boulevard", "street_number": "2401", "city": "Arlington"}}, {"geocode": {"lng": -77.04248179999999, "lat": 38.8523336}, "notes": ["Off Premise ATM", "24 Hour Operations", "Walk Up ATM", "Cash Withdrawals Only"], "hours": ["24 hours a day, 7 days a week"], "name": "National Airport 3", "address": {"state": "VA", "zip": "22202", "street_name": "Smith Boulevard", "street_number": "2401", "city": "Arlington"}}, {"geocode": {"lng": -77.04248179999999, "lat": 38.8523336}, "notes": ["Off Premise ATM", "24 Hour Operations", "Walk Up ATM", "Cash Withdrawals Only"], "hours": ["24 hours a day, 7 days a week"], "name": "National Airport 6", "address": {"state": "VA", "zip": "22202", "street_name": "Smith Boulevard", "street_number": "2401", "city": "Arlington"}}, {"geocode": {"lng": -77.04248179999999, "lat": 38.8523336}, "notes": ["Off Premise ATM", "24 Hour Operations", "Walk Up ATM", "Cash Withdrawals Only"], "hours": ["24 hours a day, 7 days a week"], "name": "National Airport 7", "address": {"state": "VA", "zip": "22202", "street_name": "Smith Boulevard", "street_number": "2401", "city": "Arlington"}}, {"geocode": {"lng": -77.04248179999999, "lat": 38.8523336}, "notes": ["Off Premise ATM", "24 Hour Operations", "Walk Up ATM", "Cash Withdrawals Only"], "hours": ["24 hours a day, 7 days a week"], "name": "National Airport 8", "address": {"state": "VA", "zip": "22202", "street_name": "Smith Boulevard", "street_number": "2401", "city": "Arlington"}}, {"geocode": {"lng": -77.04248179999999, "lat": 38.8523336}, "notes": ["Off Premise ATM", "24 Hour Operations", "Walk Up ATM", "Cash Withdrawals Only"], "hours": ["24 hours a day, 7 days a week"], "name": "National Airport 9", "address": {"state": "VA", "zip": "22202", "street_name": "Smith Boulevard", "street_number": "2401", "city": "Arlington"}}, {"geocode": {"lng": -77.04248179999999, "lat": 38.8523336}, "notes": ["Accepts Deposits for Capital One Bank Accounts", "No Deposit Slips Needed", "No Envelopes Needed", "Deposit Multiple Checks All at Once", "Check Images Appear on the Receipt", "Adds Your Deposit Up for You", "Deposits Made Before 9pm Post the Same Business Day", "24 Hour Operations", "Walk Up ATM"], "hours": ["24 hours a day, 7 days a week"], "name": "Reagan National Airport 1", "address": {"state": "VA", "zip": "22202", "street_name": "Smith Boulevard", "street_number": "2401", "city": "Arlington"}}, {"geocode": {"lng": -77.04248179999999, "lat": 38.8523336}, "notes": ["Accepts Deposits for Capital One Bank Accounts", "No Deposit Slips Needed", "No Envelopes Needed", "Deposit Multiple Checks All at Once", "Check Images Appear on the Receipt", "Adds Your Deposit Up for You", "Deposits Made Before 9pm Post the Same Business Day", "24 Hour Operations", "Walk Up ATM"], "hours": ["24 hours a day, 7 days a week"], "name": "Reagan National Airport 2", "address": {"state": "VA", "zip": "22202", "street_name": "Smith Boulevard", "street_number": "2401", "city": "Arlington"}}, {"geocode": {"lng": -77.0504626, "lat": 38.8365716}, "notes": ["Off Premise ATM", "24 Hour Operations", "Walk Up ATM", "Cash Withdrawals Only"], "hours": ["24 hours a day, 7 days a week"], "name": "Potomac Yards 1", "address": {"state": "VA", "zip": "22305", "street_name": "Jefferson Davis Highway", "street_number": "3671", "city": "Alexandria"}}, {"geocode": {"lng": -77.0969313, "lat": 38.9909768}, "notes": ["Accepts Deposits for Capital One Bank Accounts", "No Deposit Slips Needed", "No Envelopes Needed", "Deposit Multiple Checks All at Once", "Check Images Appear on the Receipt", "Adds Your Deposit Up for You", "Deposits Made Before 9pm Post the Same Business Day", "24 Hour Operations", "Walk Up ATM"], "hours": ["24 hours a day, 7 days a week"], "name": "Cordell Avenue 1", "address": {"state": "MD", "zip": "20814", "street_name": "Cordell Avenue", "street_number": "4825", "city": "Bethesda"}}, {"geocode": {"lng": -77.0969313, "lat": 38.9909768}, "notes": ["Accepts Deposits for Capital One Bank Accounts", "No Deposit Slips Needed", "No Envelopes Needed", "Deposit Multiple Checks All at Once", "Check Images Appear on the Receipt", "Adds Your Deposit Up for You", "Deposits Made Before 9pm Post the Same Business Day", "24 Hour Operations", "Drive-Up ATM"], "hours": ["24 hours a day, 7 days a week"], "name": "Cordell Avenue 2", "address": {"state": "MD", "zip": "20814", "street_name": "Cordell Avenue", "street_number": "4825", "city": "Bethesda"}}, {"geocode": {"lng": -77.0969313, "lat": 38.9909768}, "notes": ["Accepts Deposits for Capital One Bank Accounts", "No Deposit Slips Needed", "No Envelopes Needed", "Deposit Multiple Checks All at Once", "Check Images Appear on the Receipt", "Adds Your Deposit Up for You", "Deposits Made Before 9pm Post the Same Business Day", "24 Hour Operations", "Drive-Up ATM"], "hours": ["24 hours a day, 7 days a week"], "name": "Cordell Avenue 3", "address": {"state": "MD", "zip": "20814", "street_name": "Cordell Avenue", "street_number": "4825", "city": "Bethesda"}}, {"geocode": {"lng": -77.0115173, "lat": 38.9007143}, "notes": ["Accepts Deposits for Capital One Bank Accounts", "No Deposit Slips Needed", "No Envelopes Needed", "Deposit Multiple Checks All at Once", "Check Images Appear on the Receipt", "Adds Your Deposit Up for You", "Deposits Made Before 9pm Post the Same Business Day", "24 Hour Operations", "Walk Up ATM"], "hours": ["24 hours a day, 7 days a week"], "name": "First &amp; H Street, NW", "address": {"state": "DC", "zip": "20001", "street_name": "H Street NW", "street_number": "85", "city": "Washington"}}, {"geocode": {"lng": -77.1536083, "lat": 38.991694}, "notes": ["Accepts Deposits for Capital One Bank Accounts", "No Deposit Slips Needed", "No Envelopes Needed", "Deposit Multiple Checks All at Once", "Check Images Appear on the Receipt", "Adds Your Deposit Up for You", "Deposits Made Before 9pm Post the Same Business Day", "24 Hour Operations", "Walk Up ATM"], "hours": ["24 hours a day, 7 days a week"], "name": "Fox Hill/Bethesda 1", "address": {"state": "MD", "zip": "20817", "street_name": "Burdette Road", "street_number": "8300", "city": "Bethesda"}}, {"geocode": {"lng": -77.0059863, "lat": 38.8975061}, "notes": ["Off Premise ATM", "24 Hour Operations", "Walk Up ATM", "Cash Withdrawals Only"], "hours": ["24 hours a day, 7 days a week"], "name": "Amtrak - Union Station 1", "address": {"state": "DC", "zip": "20002", "street_name": "Massachusetts Avenue NW", "street_number": "50", "city": "Washington"}}, {"geocode": {"lng": -77.0059863, "lat": 38.8975061}, "notes": ["Off Premise ATM", "24 Hour Operations", "Walk Up ATM", "Cash Withdrawals Only"], "hours": ["24 hours a day, 7 days a week"], "name": "Amtrak - Union Station 2", "address": {"state": "DC", "zip": "20002", "street_name": "Massachusetts Avenue NW", "street_number": "50", "city": "Washington"}}, {"geocode": {"lng": -77.0146728, "lat": 38.9271809}, "notes": ["Accepts Deposits for Capital One Bank Accounts", "No Deposit Slips Needed", "No Envelopes Needed", "Deposit Multiple Checks All at Once", "Check Images Appear on the Receipt", "Adds Your Deposit Up for You", "Deposits Made Before 9pm Post the Same Business Day", "Off Premise ATM", "24 Hour Operations", "Walk Up ATM"], "hours": ["24 hours a day, 7 days a week"], "name": "Children's Hospital Center 1", "address": {"state": "DC", "zip": "20010", "street_name": "Michigan Avenue, NW", "street_number": "111", "city": "Washington"}}, {"geocode": {"lng": -77.2301317, "lat": 38.8664503}, "notes": ["Accepts Deposits for Capital One Bank Accounts", "No Deposit Slips Needed", "No Envelopes Needed", "Deposit Multiple Checks All at Once", "Check Images Appear on the Receipt", "Adds Your Deposit Up for You", "Deposits Made Before 9pm Post the Same Business Day", "24 Hour Operations", "Walk Up ATM"], "hours": ["24 hours a day, 7 days a week"], "name": "Merrifield 1", "address": {"state": "VA", "zip": "22042", "street_name": "Gatehouse Plaza", "street_number": "3046", "city": "Falls Church"}}, {"geocode": {"lng": -77.2301317, "lat": 38.8664503}, "notes": ["Accepts Deposits for Capital One Bank Accounts", "No Deposit Slips Needed", "No Envelopes Needed", "Deposit Multiple Checks All at Once", "Check Images Appear on the Receipt", "Adds Your Deposit Up for You", "Deposits Made Before 9pm Post the Same Business Day", "24 Hour Operations", "Drive-Up ATM"], "hours": ["24 hours a day, 7 days a week"], "name": "Merrifield 2", "address": {"state": "VA", "zip": "22042", "street_name": "Gatehouse Plaza", "street_number": "3046", "city": "Falls Church"}}, {"geocode": {"lng": -77.1889159, "lat": 38.8297662}, "notes": ["Accepts Deposits for Capital One Bank Accounts", "No Deposit Slips Needed", "No Envelopes Needed", "Deposit Multiple Checks All at Once", "Check Images Appear on the Receipt", "Adds Your Deposit Up for You", "Deposits Made Before 9pm Post the Same Business Day", "24 Hour Operations", "Walk Up ATM"], "hours": ["24 hours a day, 7 days a week"], "name": "Annandale 1", "address": {"state": "VA", "zip": "22003", "street_name": "Little River Turnpike", "street_number": "7030", "city": "Annandale"}}, {"geocode": {"lng": -77.1889159, "lat": 38.8297662}, "notes": ["Accepts Deposits for Capital One Bank Accounts", "No Deposit Slips Needed", "No Envelopes Needed", "Deposit Multiple Checks All at Once", "Check Images Appear on the Receipt", "Adds Your Deposit Up for You", "Deposits Made Before 9pm Post the Same Business Day", "24 Hour Operations", "Drive-Up ATM"], "hours": ["24 hours a day, 7 days a week"], "name": "Annandale 2", "address": {"state": "VA", "zip": "22003", "street_name": "Little River Turnpike", "street_number": "7030", "city": "Annandale"}}, {"geocode": {"lng": -77.0068546, "lat": 38.8981873}, "notes": ["Off Premise ATM", "24 Hour Operations", "Walk Up ATM", "Cash Withdrawals Only"], "hours": ["24 hours a day, 7 days a week"], "name": "WMATA - Union Station 1", "address": {"state": "DC", "zip": "20002", "street_name": "1st Street, NE", "street_number": "701", "city": "Washington"}}, {"geocode": {"lng": -77.0061551, "lat": 38.88517179999999}, "notes": ["Off Premise ATM", "24 Hour Operations", "Walk Up ATM", "Cash Withdrawals Only"], "hours": ["24 hours a day, 7 days a week"], "name": "WMATA - Capitol South 1", "address": {"state": "DC", "zip": "20003", "street_name": "First Street, SE", "street_number": "355", "city": "Washington"}}, {"geocode": {"lng": -77.0763425, "lat": 38.9943328}, "notes": ["Accepts Deposits for Capital One Bank Accounts", "No Deposit Slips Needed", "No Envelopes Needed", "Deposit Multiple Checks All at Once", "Check Images Appear on the Receipt", "Adds Your Deposit Up for You", "Deposits Made Before 9pm Post the Same Business Day", "24 Hour Operations", "Walk Up ATM"], "hours": ["24 hours a day, 7 days a week"], "name": "Chevy Chase Lake 1", "address": {"state": "MD", "zip": "20815", "street_name": "Connecticut Avenue", "street_number": "8401", "city": "Chevy Chase"}}, {"geocode": {"lng": -77.14197949999999, "lat": 38.8090259}, "notes": ["Off Premise ATM", "24 Hour Operations", "Walk Up ATM", "Cash Withdrawals Only"], "hours": ["24 hours a day, 7 days a week"], "name": "Watergate @ Landmark 1", "address": {"state": "VA", "zip": "22304", "street_name": "Yoakum Parkway", "street_number": "211", "city": "Alexandria"}}, {"geocode": {"lng": -77.0759868, "lat": 38.9957941}, "notes": ["Off Premise ATM", "Walk Up ATM", "Cash Withdrawals Only"], "hours": ["Sun 9 AM - 5 PM", "Mon 9 AM - 8 PM", "Tue 9 AM - 8 PM", "Wed 9 AM - 8 PM", "Thu 9 AM - 8 PM", "Fri 9 AM - 8 PM", "Sat 9 AM - 7 PM"], "name": "Chevy Chase Supermarket 1", "address": {"state": "MD", "zip": "20815", "street_name": "Connecticut Avenue", "street_number": "8531", "city": "Chevy Chase"}}, {"geocode": {"lng": -77.0008256, "lat": 38.8868701}, "notes": ["Accepts Deposits for Capital One Bank Accounts", "No Deposit Slips Needed", "No Envelopes Needed", "Deposit Multiple Checks All at Once", "Check Images Appear on the Receipt", "Adds Your Deposit Up for You", "Deposits Made Before 9pm Post the Same Business Day", "24 Hour Operations", "Walk Up ATM"], "hours": ["24 hours a day, 7 days a week"], "name": "Capitol Hill 1", "address": {"state": "DC", "zip": "20003", "street_name": "Pennsylvania Avenue, SE", "street_number": "336", "city": "Washington"}}, {"geocode": {"lng": -77.0040154, "lat": 38.8770883}, "notes": ["Accepts Deposits for Capital One Bank Accounts", "No Deposit Slips Needed", "No Envelopes Needed", "Deposit Multiple Checks All at Once", "Check Images Appear on the Receipt", "Adds Your Deposit Up for You", "Deposits Made Before 9pm Post the Same Business Day", "24 Hour Operations", "Walk Up ATM"], "hours": ["24 hours a day, 7 days a week"], "name": "Federal Gateway Plaza 1", "address": {"state": "DC", "zip": "20003", "street_name": "New Jersey Avenue, SE", "street_number": "1100", "city": "Washington"}}, {"geocode": {"lng": -77.0040154, "lat": 38.8770883}, "notes": ["Accepts Deposits for Capital One Bank Accounts", "No Deposit Slips Needed", "No Envelopes Needed", "Deposit Multiple Checks All at Once", "Check Images Appear on the Receipt", "Adds Your Deposit Up for You", "Deposits Made Before 9pm Post the Same Business Day", "24 Hour Operations", "Walk Up ATM"], "hours": ["24 hours a day, 7 days a week"], "name": "Federal Gateway Plaza 2", "address": {"state": "DC", "zip": "20003", "street_name": "New Jersey Avenue, SE", "street_number": "1100", "city": "Washington"}}, {"geocode": {"lng": -76.995835, "lat": 38.884243}, "notes": ["Off Premise ATM", "24 Hour Operations", "Walk Up ATM", "Cash Withdrawals Only"], "hours": ["24 hours a day, 7 days a week"], "name": "WMATA - Eastern Market 1", "address": {"state": "DC", "zip": "20003", "street_name": "Pennsylvania Avenue, SE", "street_number": "701", "city": "Washington"}}, {"geocode": {"lng": -77.1847098, "lat": 38.7797446}, "notes": ["Accepts Deposits for Capital One Bank Accounts", "No Deposit Slips Needed", "No Envelopes Needed", "Deposit Multiple Checks All at Once", "Check Images Appear on the Receipt", "Adds Your Deposit Up for You", "Deposits Made Before 9pm Post the Same Business Day", "24 Hour Operations", "Walk Up ATM"], "hours": ["24 hours a day, 7 days a week"], "name": "Bradlick Shopping Center 1", "address": {"state": "VA", "zip": "22003", "street_name": "Bradlick Shopping Center", "street_number": "7000", "city": "Annandale"}}, {"geocode": {"lng": -77.1847098, "lat": 38.7797446}, "notes": ["Accepts Deposits for Capital One Bank Accounts", "No Deposit Slips Needed", "No Envelopes Needed", "Deposit Multiple Checks All at Once", "Check Images Appear on the Receipt", "Adds Your Deposit Up for You", "Deposits Made Before 9pm Post the Same Business Day", "24 Hour Operations", "Drive-Up ATM"], "hours": ["24 hours a day, 7 days a week"], "name": "Bradlick Shopping Center 2", "address": {"state": "VA", "zip": "22003", "street_name": "Bradlick Shopping Center", "street_number": "7000", "city": "Annandale"}}, {"geocode": {"lng": -76.99524079999999, "lat": 38.8835778}, "notes": ["Off Premise ATM", "24 Hour Operations", "Walk Up ATM", "Cash Withdrawals Only"], "hours": ["24 hours a day, 7 days a week"], "name": "Barrack's Row 1", "address": {"state": "DC", "zip": "20003", "street_name": "8th Street SE", "street_number": "401", "city": "Washington"}}, {"geocode": {"lng": -76.99524079999999, "lat": 38.8835778}, "notes": ["Off Premise ATM", "24 Hour Operations", "Walk Up ATM", "Cash Withdrawals Only"], "hours": ["24 hours a day, 7 days a week"], "name": "Barrack's Row 2", "address": {"state": "DC", "zip": "20003", "street_name": "8th Street SE", "street_number": "401", "city": "Washington"}}, {"geocode": {"lng": -77.06150679999999, "lat": 38.8061673}, "notes": ["Off Premise ATM", "24 Hour Operations", "Walk Up ATM", "Cash Withdrawals Only"], "hours": ["24 hours a day, 7 days a week"], "name": "WMATA - King Street 1", "address": {"state": "VA", "zip": "22301", "street_name": "King Street", "street_number": "1900", "city": "Alexandria"}}, {"geocode": {"lng": -77.26190199999999, "lat": 38.904818}, "notes": ["Accepts Deposits for Capital One Bank Accounts", "No Deposit Slips Needed", "No Envelopes Needed", "Deposit Multiple Checks All at Once", "Check Images Appear on the Receipt", "Adds Your Deposit Up for You", "Deposits Made Before 9pm Post the Same Business Day", "24 Hour Operations", "Walk Up ATM"], "hours": ["24 hours a day, 7 days a week"], "name": "Vienna 1", "address": {"state": "VA", "zip": "22180", "street_name": "Maple Avenue", "street_number": "246", "city": "Vienna"}}, {"geocode": {"lng": -77.26190199999999, "lat": 38.904818}, "notes": ["Accepts Deposits for Capital One Bank Accounts", "No Deposit Slips Needed", "No Envelopes Needed", "Deposit Multiple Checks All at Once", "Check Images Appear on the Receipt", "Adds Your Deposit Up for You", "Deposits Made Before 9pm Post the Same Business Day", "24 Hour Operations", "Drive-Up ATM"], "hours": ["24 hours a day, 7 days a week"], "name": "Vienna 2", "address": {"state": "VA", "zip": "22180", "street_name": "Maple Avenue", "street_number": "246", "city": "Vienna"}}, {"geocode": {"lng": -76.999462, "lat": 38.952534}, "notes": ["Off Premise ATM", "24 Hour Operations", "Walk Up ATM", "Cash Withdrawals Only"], "hours": ["24 hours a day, 7 days a week"], "name": "WMATA - Fort Totten 1", "address": {"state": "DC", "zip": "20011", "street_name": "Galloway Street, NE", "street_number": "550", "city": "Washington"}}, {"geocode": {"lng": -77.064458, "lat": 38.804034}, "notes": ["Accepts Deposits for Capital One Bank Accounts", "No Deposit Slips Needed", "No Envelopes Needed", "Deposit Multiple Checks All at Once", "Check Images Appear on the Receipt", "Adds Your Deposit Up for You", "Deposits Made Before 9pm Post the Same Business Day", "24 Hour Operations", "Walk Up ATM"], "hours": ["24 hours a day, 7 days a week"], "name": "Carlyle Place 1", "address": {"state": "VA", "zip": "22314", "street_name": "Jamieson Avenue", "street_number": "2051", "city": "Alexandria"}}, {"geocode": {"lng": -77.264893, "lat": 38.874981}, "notes": ["Off Premise ATM", "24 Hour Operations", "Walk Up ATM", "Cash Withdrawals Only"], "hours": ["24 hours a day, 7 days a week"], "name": "WMATA - Vienna 1", "address": {"state": "VA", "zip": "22031", "street_name": "Nutley Street", "street_number": "2900", "city": "Fairfax"}}, {"geocode": {"lng": -77.0211983, "lat": 38.9834649}, "notes": ["Off Premise ATM", "24 Hour Operations", "Walk Up ATM", "Cash Withdrawals Only"], "hours": ["24 hours a day, 7 days a week"], "name": "Montgomery College-Takoma Park 1", "address": {"state": "MD", "zip": "20912", "street_name": "Takoma Avenue", "street_number": "7600", "city": "Takoma Park"}}, {"geocode": {"lng": -77.07440849999999, "lat": 38.7946065}, "notes": ["Off Premise ATM", "24 Hour Operations", "Walk Up ATM", "Cash Withdrawals Only"], "hours": ["24 hours a day, 7 days a week"], "name": "WMATA - Huntington 1", "address": {"state": "VA", "zip": "22303", "street_name": "Huntington Avenue", "street_number": "2701", "city": "Alexandria"}}, {"geocode": {"lng": -77.2623614, "lat": 38.8703504}, "notes": ["Accepts Deposits for Capital One Bank Accounts", "No Deposit Slips Needed", "No Envelopes Needed", "Deposit Multiple Checks All at Once", "Check Images Appear on the Receipt", "Adds Your Deposit Up for You", "Deposits Made Before 9pm Post the Same Business Day", "24 Hour Operations", "Walk Up ATM"], "hours": ["24 hours a day, 7 days a week"], "name": "Pan Am 1", "address": {"state": "VA", "zip": "22031", "street_name": "Nutley Street", "street_number": "3095", "city": "Fairfax"}}, {"geocode": {"lng": -77.2623614, "lat": 38.8703504}, "notes": ["Accepts Deposits for Capital One Bank Accounts", "No Deposit Slips Needed", "No Envelopes Needed", "Deposit Multiple Checks All at Once", "Check Images Appear on the Receipt", "Adds Your Deposit Up for You", "Deposits Made Before 9pm Post the Same Business Day", "24 Hour Operations", "Drive-Up ATM"], "hours": ["24 hours a day, 7 days a week"], "name": "Pan Am 2", "address": {"state": "VA", "zip": "22031", "street_name": "Nutley Street", "street_number": "3095", "city": "Fairfax"}}, {"geocode": {"lng": -76.9642504, "lat": 38.9358531}, "notes": ["Accepts Deposits for Capital One Bank Accounts", "No Deposit Slips Needed", "No Envelopes Needed", "Deposit Multiple Checks All at Once", "Check Images Appear on the Receipt", "Adds Your Deposit Up for You", "Deposits Made Before 9pm Post the Same Business Day", "24 Hour Operations", "Walk Up ATM"], "hours": ["24 hours a day, 7 days a week"], "name": "Riggs Road 1", "address": {"state": "MD", "zip": "20782", "street_name": "Eastern Avenue", "street_number": "5823", "city": "Chillum"}}, {"geocode": {"lng": -76.9642504, "lat": 38.9358531}, "notes": ["Accepts Deposits for Capital One Bank Accounts", "No Deposit Slips Needed", "No Envelopes Needed", "Deposit Multiple Checks All at Once", "Check Images Appear on the Receipt", "Adds Your Deposit Up for You", "Deposits Made Before 9pm Post the Same Business Day", "24 Hour Operations", "Walk Up ATM"], "hours": ["24 hours a day, 7 days a week"], "name": "Riggs Road 2", "address": {"state": "MD", "zip": "20782", "street_name": "Eastern Avenue", "street_number": "5823", "city": "Chillum"}}, {"geocode": {"lng": -77.0322949, "lat": 38.9936282}, "notes": ["Off Premise ATM", "24 Hour Operations", "Walk Up ATM", "Cash Withdrawals Only"], "hours": ["24 hours a day, 7 days a week"], "name": "WMATA - Silver Spring 1", "address": {"state": "MD", "zip": "20910", "street_name": "Colesville Road", "street_number": "8400", "city": "Silver Spring"}}, {"geocode": {"lng": -76.9724318, "lat": 38.8740115}, "notes": ["Off Premise ATM", "24 Hour Operations", "Walk Up ATM", "Cash Withdrawals Only"], "hours": ["24 hours a day, 7 days a week"], "name": "The Grays on Pennsylvania 1", "address": {"state": "DC", "zip": "20003", "street_name": "Pennsylvania Avenue, SE", "street_number": "2323", "city": "Washington"}}, {"geocode": {"lng": -77.0263252, "lat": 38.9932522}, "notes": ["Accepts Deposits for Capital One Bank Accounts", "No Deposit Slips Needed", "No Envelopes Needed", "Deposit Multiple Checks All at Once", "Check Images Appear on the Receipt", "Adds Your Deposit Up for You", "Deposits Made Before 9pm Post the Same Business Day", "24 Hour Operations", "Walk Up ATM"], "hours": ["24 hours a day, 7 days a week"], "name": "Silver Spring 1", "address": {"state": "MD", "zip": "20910", "street_name": "Georgia Avenue", "street_number": "8315", "city": "Silver Spring"}}, {"geocode": {"lng": -77.0263252, "lat": 38.9932522}, "notes": ["Accepts Deposits for Capital One Bank Accounts", "No Deposit Slips Needed", "No Envelopes Needed", "Deposit Multiple Checks All at Once", "Check Images Appear on the Receipt", "Adds Your Deposit Up for You", "Deposits Made Before 9pm Post the Same Business Day", "24 Hour Operations", "Walk Up ATM"], "hours": ["24 hours a day, 7 days a week"], "name": "Silver Spring 2", "address": {"state": "MD", "zip": "20910", "street_name": "Georgia Avenue", "street_number": "8315", "city": "Silver Spring"}}, {"geocode": {"lng": -77.0263252, "lat": 38.9932522}, "notes": ["Accepts Deposits for Capital One Bank Accounts", "No Deposit Slips Needed", "No Envelopes Needed", "Deposit Multiple Checks All at Once", "Check Images Appear on the Receipt", "Adds Your Deposit Up for You", "Deposits Made Before 9pm Post the Same Business Day", "24 Hour Operations", "Drive-Up ATM"], "hours": ["24 hours a day, 7 days a week"], "name": "Silver Spring 3", "address": {"state": "MD", "zip": "20910", "street_name": "Georgia Avenue", "street_number": "8315", "city": "Silver Spring"}}, {"geocode": {"lng": -77.0263252, "lat": 38.9932522}, "notes": ["Accepts Deposits for Capital One Bank Accounts", "No Deposit Slips Needed", "No Envelopes Needed", "Deposit Multiple Checks All at Once", "Check Images Appear on the Receipt", "Adds Your Deposit Up for You", "Deposits Made Before 9pm Post the Same Business Day", "24 Hour Operations", "Drive-Up ATM"], "hours": ["24 hours a day, 7 days a week"], "name": "Silver Spring 4", "address": {"state": "MD", "zip": "20910", "street_name": "Georgia Avenue", "street_number": "8315", "city": "Silver Spring"}}, {"geocode": {"lng": -77.1331784, "lat": 39.0245951}, "notes": ["Off Premise ATM", "24 Hour Operations", "Walk Up ATM", "Cash Withdrawals Only"], "hours": ["24 hours a day, 7 days a week"], "name": "Suburban Hospital Center 1", "address": {"state": "MD", "zip": "20817", "street_name": "Rockledge Drive", "street_number": "6420", "city": "Bethesda"}}, {"geocode": {"lng": -77.02986279999999, "lat": 38.9971571}, "notes": ["Accepts Deposits for Capital One Bank Accounts", "No Deposit Slips Needed", "No Envelopes Needed", "Deposit Multiple Checks All at Once", "Check Images Appear on the Receipt", "Adds Your Deposit Up for You", "Deposits Made Before 9pm Post the Same Business Day", "24 Hour Operations", "Walk Up ATM"], "hours": ["24 hours a day, 7 days a week"], "name": "8676 Georgia Avenue 1", "address": {"state": "MD", "zip": "20910", "street_name": "Georgia Avenue", "street_number": "8676", "city": "Silver Spring"}}, {"geocode": {"lng": -77.02986279999999, "lat": 38.9971571}, "notes": ["Accepts Deposits for Capital One Bank Accounts", "No Deposit Slips Needed", "No Envelopes Needed", "Deposit Multiple Checks All at Once", "Check Images Appear on the Receipt", "Adds Your Deposit Up for You", "Deposits Made Before 9pm Post the Same Business Day", "24 Hour Operations", "Drive-Up ATM"], "hours": ["24 hours a day, 7 days a week"], "name": "8676 Georgia Avenue 2", "address": {"state": "MD", "zip": "20910", "street_name": "Georgia Avenue", "street_number": "8676", "city": "Silver Spring"}}, {"geocode": {"lng": -77.02986279999999, "lat": 38.9971571}, "notes": ["Accepts Deposits for Capital One Bank Accounts", "No Deposit Slips Needed", "No Envelopes Needed", "Deposit Multiple Checks All at Once", "Check Images Appear on the Receipt", "Adds Your Deposit Up for You", "Deposits Made Before 9pm Post the Same Business Day", "24 Hour Operations", "Drive-Up ATM"], "hours": ["24 hours a day, 7 days a week"], "name": "8676 Georgia Avenue 3", "address": {"state": "MD", "zip": "20910", "street_name": "Georgia Avenue", "street_number": "8676", "city": "Silver Spring"}}, {"geocode": {"lng": -77.2722943, "lat": 38.8442577}, "notes": ["Accepts Deposits for Capital One Bank Accounts", "No Deposit Slips Needed", "No Envelopes Needed", "Deposit Multiple Checks All at Once", "Check Images Appear on the Receipt", "Adds Your Deposit Up for You", "Deposits Made Before 9pm Post the Same Business Day", "24 Hour Operations", "Drive-Up ATM"], "hours": ["24 hours a day, 7 days a week"], "name": "Fair City Mall 1", "address": {"state": "VA", "zip": "22031", "street_name": "Pickett Road", "street_number": "3941", "city": "Fairfax"}}, {"geocode": {"lng": -77.2722943, "lat": 38.8442577}, "notes": ["Accepts Deposits for Capital One Bank Accounts", "No Deposit Slips Needed", "No Envelopes Needed", "Deposit Multiple Checks All at Once", "Check Images Appear on the Receipt", "Adds Your Deposit Up for You", "Deposits Made Before 9pm Post the Same Business Day", "24 Hour Operations", "Walk Up ATM"], "hours": ["24 hours a day, 7 days a week"], "name": "Fair City Mall 2", "address": {"state": "VA", "zip": "22031", "street_name": "Pickett Road", "street_number": "3941", "city": "Fairfax"}}, {"geocode": {"lng": -77.1459998, "lat": 39.0241378}, "notes": ["Off Premise ATM", "Walk Up ATM", "Cash Withdrawals Only"], "hours": ["Sun 11 AM - 7 PM", "Mon 10 AM - 9:30 PM", "Tue 10 AM - 9:30 PM", "Wed 10 AM - 9:30 PM", "Thu 10 AM - 9:30 PM", "Fri 10 AM - 9:30 PM", "Sat 10 AM - 9:30 PM"], "name": "Montgomery Mall 7", "address": {"state": "MD", "zip": "20817", "street_name": "Democracy Boulevard", "street_number": "7101", "city": "Bethesda"}}, {"geocode": {"lng": -77.0411161, "lat": 38.8041116}, "notes": ["Off Premise ATM", "24 Hour Operations", "Walk Up ATM", "Cash Withdrawals Only"], "hours": ["24 hours a day, 7 days a week"], "name": "118 King Street 1", "address": {"state": "VA", "zip": "22314", "street_name": "King Street", "street_number": "118", "city": "Alexandria"}}, {"geocode": {"lng": -77.12731459999999, "lat": 39.0252174}, "notes": ["Accepts Deposits for Capital One Bank Accounts", "No Deposit Slips Needed", "No Envelopes Needed", "Deposit Multiple Checks All at Once", "Check Images Appear on the Receipt", "Adds Your Deposit Up for You", "Deposits Made Before 9pm Post the Same Business Day", "24 Hour Operations", "Walk Up ATM"], "hours": ["24 hours a day, 7 days a week"], "name": "Georgetown Square 1", "address": {"state": "MD", "zip": "20814", "street_name": "Old Georgetown Road", "street_number": "10400", "city": "Bethesda"}}, {"geocode": {"lng": -77.047769, "lat": 38.8000264}, "notes": ["Accepts Deposits for Capital One Bank Accounts", "No Deposit Slips Needed", "No Envelopes Needed", "Deposit Multiple Checks All at Once", "Check Images Appear on the Receipt", "Adds Your Deposit Up for You", "Deposits Made Before 9pm Post the Same Business Day", "24 Hour Operations", "Walk Up ATM"], "hours": ["24 hours a day, 7 days a week"], "name": "Old Towne 1", "address": {"state": "VA", "zip": "22314", "street_name": "South Washington Street", "street_number": "500", "city": "Alexandria"}}, {"geocode": {"lng": -77.047769, "lat": 38.8000264}, "notes": ["Accepts Deposits for Capital One Bank Accounts", "No Deposit Slips Needed", "No Envelopes Needed", "Deposit Multiple Checks All at Once", "Check Images Appear on the Receipt", "Adds Your Deposit Up for You", "Deposits Made Before 9pm Post the Same Business Day", "24 Hour Operations", "Drive-Up ATM"], "hours": ["24 hours a day, 7 days a week"], "name": "Old Towne 2", "address": {"state": "VA", "zip": "22314", "street_name": "South Washington Street", "street_number": "500", "city": "Alexandria"}}, {"geocode": {"lng": -77.134322, "lat": 38.7840091}, "notes": ["Accepts Deposits for Capital One Bank Accounts", "No Deposit Slips Needed", "No Envelopes Needed", "Deposit Multiple Checks All at Once", "Check Images Appear on the Receipt", "Adds Your Deposit Up for You", "Deposits Made Before 9pm Post the Same Business Day", "24 Hour Operations", "Walk Up ATM"], "hours": ["24 hours a day, 7 days a week"], "name": "Franconia 1", "address": {"state": "VA", "zip": "22310", "street_name": "Franconia Road", "street_number": "5515", "city": "Alexandria"}}, {"geocode": {"lng": -77.134322, "lat": 38.7840091}, "notes": ["Accepts Deposits for Capital One Bank Accounts", "No Deposit Slips Needed", "No Envelopes Needed", "Deposit Multiple Checks All at Once", "Check Images Appear on the Receipt", "Adds Your Deposit Up for You", "Deposits Made Before 9pm Post the Same Business Day", "24 Hour Operations", "Drive-Up ATM"], "hours": ["24 hours a day, 7 days a week"], "name": "Franconia 2", "address": {"state": "VA", "zip": "22310", "street_name": "Franconia Road", "street_number": "5515", "city": "Alexandria"}}, {"geocode": {"lng": -77.10287129999999, "lat": 39.0317221}, "notes": ["Off Premise ATM", "24 Hour Operations", "Walk Up ATM", "Cash Withdrawals Only"], "hours": ["24 hours a day, 7 days a week"], "name": "Strathmore Music Center 1", "address": {"state": "MD", "zip": "20852", "street_name": "Tuckerman Lane", "street_number": "5301", "city": "Rockville"}}, {"geocode": {"lng": -77.14787419999999, "lat": 39.0269899}, "notes": ["Accepts Deposits for Capital One Bank Accounts", "No Deposit Slips Needed", "No Envelopes Needed", "Deposit Multiple Checks All at Once", "Check Images Appear on the Receipt", "Adds Your Deposit Up for You", "Deposits Made Before 9pm Post the Same Business Day", "24 Hour Operations", "Drive-Up ATM"], "hours": ["24 hours a day, 7 days a week"], "name": "Magruder House 1", "address": {"state": "MD", "zip": "20817", "street_name": "Westlake Terrace", "street_number": "7340", "city": "Bethesda"}}, {"geocode": {"lng": -77.14787419999999, "lat": 39.0269899}, "notes": ["Accepts Deposits for Capital One Bank Accounts", "No Deposit Slips Needed", "No Envelopes Needed", "Deposit Multiple Checks All at Once", "Check Images Appear on the Receipt", "Adds Your Deposit Up for You", "Deposits Made Before 9pm Post the Same Business Day", "24 Hour Operations", "Drive-Up ATM"], "hours": ["24 hours a day, 7 days a week"], "name": "Magruder House 2", "address": {"state": "MD", "zip": "20817", "street_name": "Westlake Terrace", "street_number": "7340", "city": "Bethesda"}}, {"geocode": {"lng": -77.20920389999999, "lat": 39.0184222}, "notes": ["Accepts Deposits for Capital One Bank Accounts", "No Deposit Slips Needed", "No Envelopes Needed", "Deposit Multiple Checks All at Once", "Check Images Appear on the Receipt", "Adds Your Deposit Up for You", "Deposits Made Before 9pm Post the Same Business Day", "24 Hour Operations", "Drive-Up ATM"], "hours": ["24 hours a day, 7 days a week"], "name": "Potomac 1", "address": {"state": "MD", "zip": "20854", "street_name": "River Road", "street_number": "10211", "city": "Potomac"}}, {"geocode": {"lng": -77.20920389999999, "lat": 39.0184222}, "notes": ["Accepts Deposits for Capital One Bank Accounts", "No Deposit Slips Needed", "No Envelopes Needed", "Deposit Multiple Checks All at Once", "Check Images Appear on the Receipt", "Adds Your Deposit Up for You", "Deposits Made Before 9pm Post the Same Business Day", "24 Hour Operations", "Drive-Up ATM"], "hours": ["24 hours a day, 7 days a week"], "name": "Potomac 2", "address": {"state": "MD", "zip": "20854", "street_name": "River Road", "street_number": "10211", "city": "Potomac"}}, {"geocode": {"lng": -77.20920389999999, "lat": 39.0184222}, "notes": ["Accepts Deposits for Capital One Bank Accounts", "No Deposit Slips Needed", "No Envelopes Needed", "Deposit Multiple Checks All at Once", "Check Images Appear on the Receipt", "Adds Your Deposit Up for You", "Deposits Made Before 9pm Post the Same Business Day", "24 Hour Operations", "Drive-Up ATM"], "hours": ["24 hours a day, 7 days a week"], "name": "Potomac 3", "address": {"state": "MD", "zip": "20854", "street_name": "River Road", "street_number": "10211", "city": "Potomac"}}, {"geocode": {"lng": -77.1859315, "lat": 38.7818524},